time_ms,lat,lon,alt_m,speed_mps,sats,fix,ax,ay,az,gx,gy,gz,acc_nav_x,acc_nav_y,acc_nav_z,roll_deg,pitch_deg,yaw_deg
442,nan,nan,nan,nan,0,0,1.001973,-0.111330,9.311051,-5.954198,-3.938931,-0.793893,0.995557,-0.101792,-0.494802,-0.0595,-0.0394,-0.0079
542,nan,nan,nan,nan,0,0,0.979228,-0.057461,9.141062,-3.358778,2.732824,-0.717557,1.016531,0.004199,-0.669481,-0.3954,0.2338,-0.0800
642,nan,nan,nan,nan,0,0,0.906205,-0.256180,9.301474,-4.503816,-1.007634,0.213740,0.927713,-0.119809,-0.504540,-0.8457,0.1332,-0.0579
742,nan,nan,nan,nan,0,0,0.998382,-0.223858,9.374497,-4.167939,-1.938931,-0.152672,0.988394,-0.018471,-0.428441,-1.2625,-0.0609,-0.0703
842,nan,nan,nan,nan,0,0,0.919373,-0.150835,9.211691,-5.221374,-0.320611,-0.274809,0.904560,0.134576,-0.593241,-1.7846,-0.0936,-0.0971
942,nan,nan,nan,nan,0,0,1.000776,-0.098162,9.042901,-4.778625,1.038168,-0.625954,1.002812,0.256035,-0.767067,-2.2623,0.0083,-0.1629
1042,nan,nan,nan,nan,0,0,1.057040,-0.254982,9.435549,-5.923664,-3.312977,0.488550,1.004559,0.213487,-0.364340,-2.8547,-0.3208,-0.1010
1142,nan,nan,nan,nan,0,0,0.946907,-0.067038,9.425972,-5.816794,-1.877863,0.717557,0.864108,0.497851,-0.385634,-3.4368,-0.5048,-0.0200
1242,nan,nan,nan,nan,0,0,0.895431,-0.241814,9.068039,-6.931298,-3.206107,0.259542,0.764948,0.412285,-0.732815,-4.1304,-0.8233,0.0252
1342,nan,nan,nan,nan,0,0,0.940921,-0.209493,9.012972,-5.221374,-2.320611,-0.290076,0.774638,0.522408,-0.790558,-4.6523,-1.0569,0.0129
1442,nan,nan,nan,nan,0,0,0.967257,-0.287304,9.301474,-5.145038,-1.404580,0.091603,0.772810,0.552030,-0.498934,-5.1672,-1.1961,0.0335
1542,nan,nan,nan,nan,0,0,0.916979,-0.199916,9.258378,-6.503817,-2.351145,-0.503817,0.685496,0.739515,-0.555618,-5.8170,-1.4348,0.0045
1642,nan,nan,nan,nan,0,0,0.969652,-0.146046,9.150639,-5.236641,0.625954,-0.076336,0.751164,0.865260,-0.675230,-6.3403,-1.3733,-0.0095
1742,nan,nan,nan,nan,0,0,0.931344,-0.264559,9.143457,-4.809160,-0.870229,-0.839695,0.698675,0.822000,-0.675584,-6.8194,-1.4691,-0.0833
1842,nan,nan,nan,nan,0,0,0.937330,-0.286107,9.260772,-3.419847,1.022901,-1.007634,0.717962,0.867714,-0.562520,-7.1586,-1.3795,-0.1956
1942,nan,nan,nan,nan,0,0,0.933739,-0.167594,9.306262,-6.870229,-4.427481,-0.122137,0.642637,1.102774,-0.539645,-7.8466,-1.8203,-0.1525
2042,nan,nan,nan,nan,0,0,0.939724,-0.197522,8.998607,-5.022900,-0.427481,-1.465649,0.651429,1.107181,-0.848591,-8.3445,-1.8826,-0.2919
2142,nan,nan,nan,nan,0,0,0.938527,-0.217872,9.238028,-4.900763,-0.366412,-0.641221,0.637064,1.199330,-0.618330,-8.8326,-1.9282,-0.3501
2245,nan,nan,nan,nan,0,0,1.028310,-0.064643,9.418790,-5.633588,-0.763359,-0.106870,0.710774,1.472358,-0.473796,-9.4129,-2.0076,-0.3489
2345,nan,nan,nan,nan,0,0,0.924162,-0.243011,9.149442,-5.969466,1.129771,-0.473282,0.632651,1.346129,-0.728483,-10.0076,-1.9039,-0.4141
2445,nan,nan,nan,nan,0,0,0.922965,-0.197522,9.136274,-5.236641,1.038168,-0.152672,0.650053,1.470459,-0.763555,-10.5302,-1.8043,-0.4472
2545,nan,nan,nan,nan,0,0,0.908600,-0.093374,9.263167,-5.801526,-2.122137,-0.396947,0.600188,1.688740,-0.672731,-11.1103,-2.0202,-0.4474
2646,nan,nan,nan,nan,0,0,0.909797,-0.167594,9.226057,-6.045802,-1.816794,-0.656488,0.573191,1.705249,-0.710523,-11.7199,-2.2130,-0.4772
2746,nan,nan,nan,nan,0,0,1.054646,-0.208296,9.329008,-5.160305,-2.335878,-0.396947,0.676579,1.768182,-0.608725,-12.2363,-2.4498,-0.4686
2846,nan,nan,nan,nan,0,0,0.937330,-0.198719,9.296686,-4.259542,1.175572,0.091603,0.581120,1.839015,-0.661883,-12.6615,-2.3330,-0.4846
2946,nan,nan,nan,nan,0,0,1.023521,-0.190339,9.279926,-4.687023,-0.580153,-0.778626,0.659662,1.916084,-0.691041,-13.1277,-2.4066,-0.5479
3046,nan,nan,nan,nan,0,0,1.016339,-0.240617,9.354146,-3.480916,0.183206,-0.916030,0.652361,1.938031,-0.619194,-13.4718,-2.4096,-0.6413
3146,nan,nan,nan,nan,0,0,1.022324,-0.173580,9.294291,-3.984733,2.274809,-0.396947,0.700246,2.050152,-0.709087,-13.8664,-2.1976,-0.7330
3246,nan,nan,nan,nan,0,0,1.013944,-0.234632,9.388862,-5.801526,-4.320611,0.198473,0.618330,2.109384,-0.619592,-14.4513,-2.6123,-0.6101
3346,nan,nan,nan,nan,0,0,0.936133,-0.178368,9.069236,-5.526718,-0.900763,-0.549618,0.542512,2.169464,-0.965931,-15.0026,-2.7133,-0.6409
3446,nan,nan,nan,nan,0,0,1.036689,-0.160412,9.384074,-5.099236,-1.404580,-0.885496,0.608513,2.347660,-0.680889,-15.5102,-2.8719,-0.6901
3546,nan,nan,nan,nan,0,0,0.968455,0.000000,9.192538,-5.755725,-1.267176,-1.114504,0.535069,2.539552,-0.935064,-16.0820,-3.0238,-0.7637
3646,nan,nan,nan,nan,0,0,0.946907,-0.318429,9.197326,-5.526718,0.198473,-0.290076,0.509974,2.320663,-0.865549,-16.6330,-3.0127,-0.7971
3746,nan,nan,nan,nan,0,0,0.988805,-0.126893,9.168596,-5.465648,-0.213740,-0.564885,0.557522,2.578535,-0.969381,-17.1770,-3.0494,-0.8452
3846,nan,nan,nan,nan,0,0,1.013944,-0.094571,9.270349,-5.648855,-0.442748,-0.412214,0.574346,2.726237,-0.906417,-17.7405,-3.1039,-0.8715
3946,nan,nan,nan,nan,0,0,0.980426,-0.141258,9.206903,-4.870229,-1.664122,-0.778626,0.517832,2.737716,-0.975738,-18.2262,-3.2861,-0.8950
4046,nan,nan,nan,nan,0,0,0.985214,-0.064643,9.224860,-4.778625,-0.183206,-0.076336,0.523779,2.889150,-1.006006,-18.7040,-3.3059,-0.8965
4146,nan,nan,nan,nan,0,0,1.004368,-0.137667,9.378088,-5.877862,-2.809160,-0.030534,0.489869,2.962548,-0.864638,-19.2968,-3.5729,-0.8092
4246,nan,nan,nan,nan,0,0,0.907402,-0.184354,9.257182,-6.580152,-1.877863,0.259542,0.371191,2.982384,-1.002084,-19.9602,-3.7416,-0.7225
4360,55.591163,37.671600,178.699996,nan,11,1,0.985214,-0.134075,9.217677,-5.770992,-2.824427,-0.580153,0.404274,3.116336,-1.084311,-20.6213,-4.0668,-0.6746
4460,55.591163,37.671600,178.699996,nan,11,1,1.034295,-0.195127,9.342176,-5.022900,-2.900763,-0.671756,0.398458,3.180927,-0.968832,-21.1263,-4.3620,-0.6352
4560,55.591163,37.671600,178.699996,nan,11,1,1.063026,-0.031125,9.267955,-4.793893,-1.007634,-0.274809,0.424823,3.379380,-1.121876,-21.6066,-4.4659,-0.6245
4660,55.591163,37.671600,178.699996,nan,11,1,1.019930,-0.112527,9.200918,-5.007633,-1.923664,-0.305343,0.355290,3.355503,-1.185503,-22.1106,-4.6560,-0.5819
4760,55.591163,37.671600,178.699996,nan,11,1,0.791284,-0.247800,9.071631,-5.007633,0.137405,1.328244,0.136913,3.259516,-1.301426,-22.6210,-4.5932,-0.4637
4860,55.591163,37.671600,178.699996,nan,11,1,0.980426,-0.201113,9.330204,-4.412214,0.503817,-1.374046,0.319415,3.464903,-1.091903,-23.0505,-4.5996,-0.6104
4960,55.591163,37.671600,178.699996,nan,11,1,0.981623,-0.125696,9.382877,-5.862595,-2.229007,-0.213740,0.287268,3.645050,-1.109015,-23.6422,-4.8130,-0.5425
5060,55.591163,37.671600,178.699996,nan,11,1,1.039083,-0.050278,9.288306,-4.473282,-1.282443,-0.396947,0.336783,3.742491,-1.248894,-24.0908,-4.9464,-0.5274
5160,55.591163,37.671600,178.699996,nan,11,1,0.949301,-0.219069,9.228451,-6.687022,-2.091603,0.503817,0.215320,3.666317,-1.284606,-24.7708,-5.1168,-0.3955
5260,55.591163,37.671600,178.699996,nan,11,1,1.023521,-0.106542,9.390060,-4.167939,-2.198473,-1.435114,0.248068,3.897570,-1.205512,-25.1842,-5.3766,-0.4339
5360,55.591163,37.671600,178.699996,nan,11,1,0.976834,-0.033519,9.242816,-7.419847,0.442748,0.641221,0.229757,4.009983,-1.424990,-25.9299,-5.3092,-0.3945
5460,55.591163,37.671600,178.699996,nan,11,1,1.019930,-0.143652,9.153034,-5.572519,3.633588,-1.145038,0.336907,3.946538,-1.490987,-26.4628,-5.0325,-0.6575
5560,55.591163,37.671600,178.699996,nan,11,1,1.001973,-0.034716,9.427169,-3.496183,4.473282,0.442748,0.381009,4.214261,-1.323048,-26.7984,-4.6123,-0.8178
5660,55.591163,37.671600,178.699996,nan,11,1,0.957681,-0.104148,9.393651,-4.320611,0.076336,-0.793893,0.340233,4.199979,-1.356023,-27.2244,-4.6413,-0.8924
5760,55.591163,37.671600,178.699996,nan,11,1,1.028310,0.037110,9.520544,-3.267176,-2.198473,-1.954198,0.375831,4.429956,-1.325271,-27.5452,-4.9262,-0.9658
5860,55.591163,37.671600,178.699996,nan,11,1,0.980426,-0.185551,9.688138,-8.045802,-0.702290,1.328244,0.300151,4.435270,-1.140972,-28.3627,-4.9270,-0.8150
5960,55.591163,37.671600,178.699996,nan,11,1,0.837971,-0.159214,8.899249,-6.351145,-2.152672,0.595420,0.185677,4.174862,-1.903471,-29.0112,-5.0882,-0.6598
6060,55.591163,37.671600,178.699996,nan,11,1,1.132457,-0.102951,9.569624,-4.732824,0.030534,-2.381679,0.438028,4.611577,-1.356073,-29.4658,-5.2010,-0.8704
6160,55.591163,37.671600,178.699996,nan,11,1,1.090559,0.390255,9.630677,-0.061069,3.694656,-0.427481,0.483094,5.066889,-1.549240,-29.4520,-4.9004,-1.0903
6260,55.591026,37.671512,178.800003,nan,11,1,0.708684,0.064643,8.939949,-8.748092,1.312977,-0.045802,0.157168,4.566821,-2.089879,-30.3209,-4.7883,-1.1591
6373,55.591026,37.671512,178.800003,nan,11,1,0.521936,0.032322,9.308656,-8.610688,-7.297709,1.480916,-0.178479,4.871424,-1.859203,-31.3409,-5.4156,-0.5963
6473,55.591026,37.671512,178.800003,nan,11,1,1.054646,0.019154,9.179369,-1.847328,-5.022900,-2.305344,0.281643,4.814457,-1.925334,-31.5317,-5.9646,-0.5317
6573,55.591026,37.671512,178.800003,nan,11,1,0.932542,-0.079009,9.367315,-8.351145,-4.122138,-0.687023,0.079258,4.949809,-1.799429,-32.3832,-6.3518,-0.3738
6673,55.591026,37.671512,178.800003,nan,11,1,1.143231,-0.049081,9.150639,-3.007634,1.786260,-1.496183,0.341636,4.893453,-1.997618,-32.6593,-6.2811,-0.5972
6773,55.591026,37.671512,178.800003,nan,11,1,0.831985,0.028730,9.458294,-2.488550,3.053435,-0.274809,0.064237,5.159493,-1.836214,-32.8874,-6.0389,-0.7862
6873,55.591026,37.671512,178.800003,nan,11,1,0.878672,-0.118513,9.239225,-5.679389,-1.847328,-0.854962,0.094519,4.994188,-1.983700,-33.4584,-6.2404,-0.7576
6973,55.591026,37.671512,178.800003,nan,11,1,0.814029,-0.135272,9.100361,-1.297710,4.259542,-0.870229,0.109575,4.916130,-2.104886,-33.5546,-5.9330,-1.0668
7073,55.591026,37.671512,178.800003,nan,11,1,0.865504,0.074220,9.405622,2.488550,5.740458,-1.847328,0.244084,5.215349,-1.935126,-33.2567,-5.5568,-1.5406
7173,55.591026,37.671512,178.800003,nan,11,1,0.787692,0.166397,9.327811,-0.534351,2.290076,0.015267,0.216746,5.255917,-2.061680,-33.2981,-5.3644,-1.6655
7273,55.591026,37.671512,178.800003,nan,11,1,0.707487,0.065841,8.608353,-2.717557,6.213740,-1.511450,0.270634,4.802655,-2.632399,-33.5259,-4.9280,-2.1350
7373,55.591026,37.671512,178.800003,nan,11,1,0.025139,-0.092177,7.770381,-11.603053,-2.992366,-2.778626,-0.406154,4.364369,-3.389854,-34.6805,-5.3310,-2.2016
7473,55.591026,37.671512,178.800003,nan,11,1,0.954089,0.132878,10.149022,1.251908,-0.290076,5.969466,0.400064,5.863564,-1.476635,-34.6027,-5.0152,-1.6920
7573,55.591026,37.671512,178.800003,nan,11,1,1.004368,0.440533,7.994239,18.183206,14.519083,-3.160305,0.776055,4.656128,-3.262271,-32.6892,-3.9995,-2.7809
7673,55.591026,37.671512,178.800003,nan,11,1,0.622492,0.697910,9.519347,5.480916,2.519084,-8.641222,0.408979,5.632584,-2.086593,-32.0807,-4.2542,-3.6463
7773,55.591026,37.671512,178.800003,nan,11,1,0.854730,0.436942,9.289503,-6.763358,-3.038168,-3.679389,0.586670,5.365248,-2.185214,-32.7459,-4.7071,-3.7971
7873,55.591026,37.671512,178.800003,nan,11,1,1.051055,0.554258,10.280702,10.610688,-0.122137,-3.053435,0.740709,5.830757,-1.288529,-31.6642,-4.8825,-4.0481
7973,55.591026,37.671512,178.800003,nan,11,1,0.955286,0.142455,9.996990,1.022901,0.076336,-0.839695,0.611902,5.322828,-1.311607,-31.5554,-4.9201,-4.1239
8073,55.591026,37.671512,178.800003,nan,11,1,0.952892,0.344765,9.855731,-5.954198,-10.503817,1.114504,0.466042,5.526437,-1.596681,-32.2064,-5.7568,-3.4768
8173,55.591026,37.671512,178.800003,nan,11,1,1.309628,0.404620,9.742007,-1.664122,2.625954,-1.374046,0.880902,5.508564,-1.703239,-32.3469,-5.6079,-3.7344
8312,55.591026,37.671512,178.800003,nan,11,1,1.215057,0.567426,9.223663,-0.809160,3.312977,-1.709923,0.906943,5.371553,-2.243703,-32.4155,-5.3460,-4.1837
8412,55.591026,37.671512,178.800003,nan,11,1,1.407791,0.405817,9.549274,-3.328244,-1.068702,-0.366412,1.056199,5.445089,-1.896489,-32.7508,-5.4559,-4.1572
8512,55.591026,37.671512,178.800003,nan,11,1,0.873884,0.415394,8.927979,-6.381680,-2.625954,1.450381,0.521909,5.239919,-2.532319,-33.4142,-5.5982,-3.8920
8612,55.591026,37.671512,178.800003,nan,11,1,1.176750,0.210690,9.178173,-6.305344,1.969466,-2.717557,0.832659,5.261513,-2.237558,-34.0119,-5.5835,-4.2289
8712,55.591026,37.671512,178.800003,nan,11,1,0.894234,0.216675,8.881292,-5.007633,-0.992366,0.229008,0.558215,5.184670,-2.558786,-34.5199,-5.6530,-4.1540
8812,55.591026,37.671512,178.800003,nan,11,1,0.992397,0.478840,9.635465,1.526717,1.954198,-1.465649,0.686384,5.795829,-2.061099,-34.3443,-5.5750,-4.3867
8912,55.591026,37.671512,178.800003,nan,11,1,1.119289,0.088585,8.711303,-10.381679,-5.770992,-1.160305,0.731804,5.079428,-2.678444,-35.4049,-6.1170,-4.1558
9012,55.591026,37.671512,178.800003,nan,11,1,0.682347,0.165200,9.764752,-8.229008,-1.083969,-2.549618,0.260381,5.899182,-1.997993,-36.2123,-6.3530,-4.3016
9112,55.591026,37.671512,178.800003,nan,11,1,0.773327,0.331597,9.516952,0.061069,3.206107,-4.290076,0.437023,5.865408,-2.277615,-36.1465,-6.3478,-4.8405
9212,55.591026,37.671512,178.800003,nan,11,1,0.972046,0.305261,8.730457,-8.717557,-3.526717,-0.519084,0.625881,5.469458,-2.954480,-37.0368,-6.6632,-4.6734
9312,55.591026,37.671512,178.800003,nan,11,1,0.952892,0.482432,9.768343,-10.687023,-1.755725,3.770992,0.577625,6.388628,-2.362656,-38.1530,-6.5762,-4.2638
9412,55.591026,37.671512,178.800003,nan,11,1,1.041478,-0.148441,9.194932,-2.061069,6.015267,2.320611,0.710500,5.548669,-2.433662,-38.3373,-5.9598,-4.4542
9512,55.591026,37.671512,178.800003,nan,11,1,0.814029,0.209493,9.038112,-9.801527,2.656489,-2.351145,0.597114,5.854964,-2.896017,-39.2810,-5.8973,-4.8053
9612,55.591026,37.671512,178.800003,nan,11,1,0.469264,0.590171,8.657434,-16.778625,-7.938931,1.236641,0.227581,6.127214,-3.648311,-41.0207,-6.4335,-4.2038
9712,55.591026,37.671512,178.800003,nan,11,1,0.500388,0.124498,8.572440,-4.977099,1.969466,-2.045801,0.240938,5.770855,-3.451195,-41.4864,-6.4192,-4.4892
9812,55.591026,37.671512,178.800003,nan,11,1,1.570596,0.818817,9.392454,-14.961832,-15.145038,-9.404580,1.167320,6.939541,-3.338609,-43.0162,-8.1767,-4.1885
9912,55.591026,37.671512,178.800003,nan,11,1,1.358709,0.587777,5.463568,72.824424,93.679389,-39.740459,1.870209,3.222521,-5.545216,-34.3980,-4.0384,-13.5805
10012,55.591026,37.671512,178.800003,nan,11,1,0.609324,2.005144,10.044874,-39.786258,-72.351142,22.290075,0.650384,7.839384,-3.217839,-38.7950,-8.7491,-7.6392
10112,55.591026,37.671512,178.800003,nan,11,1,1.426944,0.205901,9.928755,1.969466,10.885497,-2.290076,1.276975,6.216827,-2.036249,-38.4656,-8.0441,-8.5098
10212,55.591026,37.671512,178.800003,nan,11,1,0.469264,1.126472,7.107188,-4.183206,7.755725,-1.618321,0.678794,5.290415,-4.953608,-38.7979,-7.5375,-9.1250
10353,55.591003,37.671504,178.800003,nan,11,1,1.631648,0.454898,9.817424,-9.801527,-3.893130,-0.503817,1.631648,6.513139,-2.446774,-40.2181,-8.0099,-8.8339
10454,55.591003,37.671504,178.800003,nan,11,1,1.040281,-0.356736,13.785814,-14.854961,-0.687023,6.763358,0.922351,8.882048,0.753492,-41.7981,-7.6218,-8.2619
10554,55.591003,37.671504,178.800003,nan,11,1,0.486023,1.048660,9.823410,-16.488550,-26.122137,13.297709,0.247154,7.568686,-3.443537,-43.8126,-8.6829,-5.5051
10654,55.591003,37.671504,178.800003,nan,11,1,0.924162,0.065841,9.363723,-23.221374,-16.396945,-3.893130,0.330780,6.806804,-3.318528,-46.2652,-10.1356,-4.6410
10754,55.591003,37.671504,178.800003,nan,11,1,0.162806,0.841562,5.673061,20.152671,24.854959,-4.198473,0.166196,4.550767,-6.316485,-43.8770,-8.7207,-6.7602
10854,55.591003,37.671504,178.800003,nan,11,1,0.730232,0.184354,10.413580,-3.908397,-15.954198,10.977099,0.195941,7.447987,-2.492351,-44.5588,-9.1099,-4.8410
10954,55.591003,37.671504,178.800003,nan,11,1,1.244985,1.279701,11.262325,40.473281,25.251909,0.381679,1.197443,8.167556,-1.939964,-40.2317,-7.2838,-6.6078
11054,55.591003,37.671504,178.800003,nan,11,1,2.646790,3.409343,11.443087,-12.290076,12.106870,3.572519,3.195891,9.803792,-3.230534,-41.3957,-6.1288,-7.1212
11154,55.591003,37.671504,178.800003,nan,11,1,-2.327164,-1.736993,13.632585,-140.488540,-105.190834,-8.534352,-4.389381,10.409865,-1.642811,-56.1227,-14.5841,-0.7693
11254,55.591003,37.671504,178.800003,nan,11,1,-1.825579,-1.940501,7.044939,-55.129768,-12.000000,-21.725191,-3.137659,5.327410,-5.505110,-61.5798,-17.0567,-0.9912
11354,55.591003,37.671504,178.800003,nan,11,1,1.085770,-1.775300,9.587581,-10.809160,-95.022903,2.900763,-2.117893,7.747863,-4.173050,-65.2671,-21.3241,7.8948
11454,55.591003,37.671504,178.800003,nan,11,1,1.412579,-1.097741,11.139024,-16.290075,-26.595417,15.969466,-2.452525,9.632781,-4.470648,-68.0999,-20.9864,11.2052
11554,55.591003,37.671504,178.800003,nan,11,1,2.252944,0.656011,11.413160,-1.022901,-30.137401,13.725191,-1.908777,10.787931,-5.838849,-69.4712,-20.8370,14.7484
11654,55.591003,37.671504,178.800003,nan,11,1,1.468843,-1.849521,7.717709,-10.000000,8.045802,3.160305,-1.737340,6.406832,-5.215853,-70.2266,-20.2589,14.0608
11754,55.591003,37.671504,178.800003,nan,11,1,2.108095,-0.202310,8.694544,19.938930,-21.587785,-7.160305,-1.505934,7.930071,-5.943202,-68.8931,-21.6630,15.9680
11854,55.591003,37.671504,178.800003,nan,11,1,2.501941,-0.107739,8.558074,-2.625954,-23.709920,21.709920,-1.408979,8.004837,-6.139321,-70.3448,-20.4915,19.1892
11954,55.591003,37.671504,178.800003,nan,11,1,2.747346,-1.526304,7.419631,-6.427480,-3.862595,38.946563,-0.925910,6.669961,-5.381410,-71.6131,-16.9537,20.9761
12054,55.591003,37.671504,178.800003,nan,11,1,2.501941,-1.769315,7.314286,15.786260,5.267175,65.969459,-0.848287,6.477602,-5.311092,-70.5164,-10.5274,22.6290
12154,55.591003,37.671504,178.800003,nan,11,1,3.277662,-1.877054,7.740454,8.564885,4.366412,80.396949,-0.025400,7.308645,-5.249887,-70.0818,-2.8024,24.9377
12254,55.590995,37.671516,178.199996,nan,11,1,2.946065,-1.200692,6.762423,-2.671756,16.473281,78.900756,0.287258,6.785140,-6.687245,-70.4047,5.1769,26.0783
12365,55.590995,37.671516,178.199996,nan,11,1,2.774880,-2.393005,8.857350,11.251908,-0.198473,80.076332,-0.131092,8.396008,-5.183994,-68.8838,13.5432,29.0923
12465,55.590995,37.671516,178.199996,nan,11,1,2.437297,-2.300828,8.146272,5.282443,4.320611,82.106872,0.040852,7.863723,-5.837246,-67.7401,21.3582,31.7203
12565,55.590995,37.671516,178.199996,nan,11,1,2.958036,-1.722628,8.037336,9.267176,7.664122,79.603042,0.357825,8.264200,-6.997530,-65.9116,29.0156,34.1965
12665,55.590995,37.671516,178.199996,nan,11,1,2.027889,-0.122104,9.306262,-1.664122,-6.885496,73.312980,-1.961939,9.050519,-7.576705,-64.0696,35.4274,38.3370
12765,55.590995,37.671516,178.199996,nan,11,1,1.310825,0.520739,10.675745,1.541985,-7.053435,57.954196,-3.531960,9.817441,-7.141305,-61.6614,40.3310,42.2255
12865,55.590995,37.671516,178.199996,nan,11,1,0.839168,0.341174,8.372524,10.030535,-1.114504,71.465644,-2.816171,7.605440,-7.538120,-57.6950,46.5682,46.8042
12965,55.590995,37.671516,178.199996,nan,11,1,0.424971,-0.377087,7.536947,-7.877862,4.717557,66.061065,-2.219824,6.786745,-7.328578,-55.1747,52.4039,51.3595
13065,55.590995,37.671516,178.199996,nan,11,1,0.233435,-0.824802,9.380483,2.305344,-12.519083,66.732826,-2.597761,8.350840,-6.307598,-48.6602,57.1670,59.2905
13165,55.590995,37.671516,178.199996,nan,11,1,0.207098,-0.277727,8.605958,-7.816794,-7.236642,48.366413,-2.957307,7.513107,-6.808303,-43.6489,60.3204,66.1849
13265,55.590995,37.671516,178.199996,nan,11,1,0.159214,-0.599748,8.470686,-10.381679,-8.229008,11.480916,-2.791632,7.378587,-6.660095,-42.2328,60.5174,69.0097
13365,55.590995,37.671516,178.199996,nan,11,1,0.043096,-0.379481,9.526529,-6.717557,-25.068702,8.244276,-3.595014,7.931217,-5.924345,-38.8446,59.2154,73.6737
13465,55.590995,37.671516,178.199996,nan,11,1,0.891840,-1.507150,8.973468,-29.007631,-4.809160,4.580152,-2.685837,8.119702,-6.574511,-40.6403,59.1281,74.9600
13565,55.590995,37.671516,178.199996,nan,11,1,2.093729,-1.816002,10.991781,-20.610685,1.068702,3.679389,-3.564040,10.349309,-6.858728,-42.3507,59.4489,75.3685
13665,55.590995,37.671516,178.199996,nan,11,1,2.330755,-3.033453,9.502587,-6.442748,20.839694,-29.374042,-1.683627,9.818100,-7.418401,-49.0513,59.0102,68.3358
13765,55.590995,37.671516,178.199996,nan,11,1,1.482011,-1.448492,8.682573,-12.045801,20.198471,-24.534351,-2.816195,8.247011,-7.873412,-55.4731,58.4809,62.2500
13865,55.590995,37.671516,178.199996,nan,11,1,0.859518,-2.067393,7.801506,-7.450381,16.183206,-38.076332,-2.019716,7.505265,-7.468249,-61.9113,56.2612,55.5715
13965,55.590995,37.671516,178.199996,nan,11,1,1.496376,-1.754950,8.538921,-4.198473,25.923662,-54.244270,-2.256570,8.398890,-8.194599,-69.5794,52.6962,46.8553
14065,55.590995,37.671516,178.199996,nan,11,1,1.121683,-2.042254,8.455123,-7.129770,13.572520,-53.374042,-2.132644,8.270519,-7.814561,-74.4060,48.1678,41.6836
14166,55.590995,37.671516,178.199996,nan,11,1,0.960075,-1.904587,10.672155,15.404581,36.961833,-64.259544,-2.783601,10.282098,-7.576379,-78.8164,42.9200,33.6764
14266,55.590984,37.671501,176.600006,nan,11,1,1.485602,0.428562,11.720815,-5.603054,13.603053,-63.694652,-4.181798,11.057516,-9.696719,-81.7664,36.9353,30.1671
14375,55.590984,37.671501,176.600006,nan,11,1,0.937330,-0.760159,9.612720,-1.664122,1.679389,-60.091602,-2.963695,9.143449,-8.592290,-82.7892,30.4791,28.7670
14475,55.590984,37.671501,176.600006,nan,11,1,0.907402,-0.644040,7.181408,-33.114501,-1.374046,-58.870223,-2.226333,6.890731,-9.196690,-86.4553,24.6214,28.0677
14575,55.590984,37.671501,176.600006,nan,11,1,0.017957,-1.662773,7.502231,-25.801525,-5.358778,-35.694656,-2.968640,6.885540,-8.125841,-88.8915,21.0256,28.4133
14675,55.590984,37.671501,176.600006,nan,11,1,0.671574,-2.403779,9.659407,-13.221375,-6.534351,-5.908396,-3.412677,9.153799,-7.783062,-89.9669,20.4222,29.1010
14775,55.590984,37.671501,176.600006,nan,11,1,1.323994,-1.780089,9.762358,-26.274808,-13.404580,-9.190840,-3.505137,9.334468,-8.908298,-92.0955,19.5024,30.5307
14875,55.590984,37.671501,176.600006,nan,11,1,1.561019,-0.213084,9.165004,-15.877862,2.000000,4.015267,-3.468324,8.581771,-10.702987,-93.7592,19.8963,30.3031
14976,55.590984,37.671501,176.600006,nan,11,1,1.084573,-2.041057,9.175779,-9.190840,7.374045,-8.717557,-3.354836,8.809275,-8.982710,-94.9356,18.9689,29.5742
15076,55.590984,37.671501,176.600006,nan,11,1,0.896629,-2.250550,7.020997,-11.541984,19.465646,-27.923662,-2.262733,6.985423,-8.689859,-96.6738,16.0194,27.7775
15176,55.590984,37.671501,176.600006,nan,11,1,0.165200,-2.782062,7.869741,2.213740,6.076336,-39.877861,-3.284300,7.461663,-8.007498,-96.4926,11.9880,27.6318
15276,55.590984,37.671501,176.600006,nan,11,1,0.749385,-1.479617,8.161834,-6.229008,-2.335878,-26.473279,-3.190367,7.685630,-9.461656,-97.0027,9.3841,28.1751
15376,55.590984,37.671501,176.600006,nan,11,1,-0.051475,-0.681150,8.675391,31.435111,13.358779,-40.061065,-4.034072,7.710320,-9.727567,-93.9976,5.2450,27.3262
15476,55.590984,37.671501,176.600006,nan,11,1,0.199916,0.727837,10.200497,12.045801,8.244276,-47.389308,-4.412800,9.144687,-11.040243,-92.8382,0.4601,26.8321
15576,55.590984,37.671501,176.600006,nan,11,1,0.888249,-1.570596,9.762358,4.167939,8.229008,-49.221374,-3.631026,9.158694,-8.584618,-92.4260,-4.4967,26.2539
15676,55.590984,37.671501,176.600006,nan,11,1,-0.381875,-2.425326,6.930017,-3.328244,10.610688,-48.458015,-3.666920,6.048078,-7.799755,-92.6916,-9.3831,25.3963
15776,55.590984,37.671501,176.600006,nan,11,1,0.211887,-2.302025,8.875307,-26.305341,-10.290077,-35.801525,-4.158462,8.045119,-8.358014,-95.5198,-12.9110,26.6085
15876,55.590984,37.671501,176.600006,nan,11,1,1.392228,-1.758541,9.734825,-15.893130,-8.213741,-5.450382,-3.464351,9.334504,-8.992463,-97.3085,-13.3745,27.5010
15976,55.590984,37.671501,176.600006,nan,11,1,1.544260,-3.136404,10.789470,-20.061069,-17.175571,-1.236641,-4.401347,10.331260,-8.216797,-99.7234,-13.2786,29.2683
16076,55.590984,37.671501,176.600006,nan,11,1,2.066196,-2.000355,7.589619,2.778626,-5.206107,7.557251,-2.249100,7.714028,-8.662872,-99.5365,-12.4458,29.6644
16176,55.590984,37.671501,176.600006,nan,11,1,1.289278,-1.819593,7.965509,-0.564885,-1.984733,14.015268,-3.010373,7.672148,-9.100757,-99.5850,-11.0308,29.6270
16304,55.590984,37.671501,176.600006,nan,11,1,0.554258,-2.548628,7.577648,2.335878,19.206106,-6.732824,-3.389100,7.117730,-8.366036,-98.8414,-12.2899,27.3035
16404,55.590984,37.671501,176.600006,nan,11,1,0.730232,-2.018312,8.249222,-3.267176,5.190839,-24.519081,-3.391562,7.774154,-8.960290,-99.1385,-14.7925,27.1643
16504,55.590984,37.671501,176.600006,nan,11,1,1.347936,-1.395820,10.867282,3.358778,11.297710,-9.145039,-3.608230,10.431840,-9.663665,-98.5464,-15.8748,26.1609
16604,55.590984,37.671501,176.600006,nan,11,1,0.769736,-0.769736,10.344149,8.259542,-11.541984,-16.122137,-3.959023,9.608393,-10.244051,-98.1132,-17.2976,27.5966
16704,55.590984,37.671501,176.600006,nan,11,1,0.134075,-0.800860,10.060436,-1.877863,0.259542,-29.725191,-4.409354,9.059670,-10.399699,-98.4236,-20.2440,28.0091
16804,55.590984,37.671501,176.600006,nan,11,1,0.141258,-0.117316,8.216900,-4.900763,16.045801,-25.770992,-3.163679,7.525756,-10.758115,-98.4675,-23.0284,26.7197
16904,55.590984,37.671501,176.600006,nan,11,1,0.196325,-0.776918,6.967127,-21.221374,-1.969466,-21.984733,-2.840350,6.399109,-10.215094,-100.8101,-25.1739,27.2831
17004,55.590984,37.671501,176.600006,nan,11,1,0.828394,-1.672350,9.818622,-16.946563,-4.641222,-3.725191,-3.783340,9.249771,-9.934747,-102.7519,-25.4527,27.8640
17104,55.590984,37.671501,176.600006,nan,11,1,1.578976,-1.151611,11.291056,-8.259542,-16.564886,28.824424,-3.620225,10.834466,-10.709779,-104.0440,-22.2758,28.9487
17204,55.590984,37.671501,176.600006,nan,11,1,0.990002,-2.580950,10.939108,-13.389313,-23.083967,13.099237,-4.820763,10.199566,-9.992655,-106.1700,-20.4448,31.0252
17304,55.590984,37.671501,176.600006,nan,11,1,2.189497,-1.663970,9.946711,-22.320608,3.862595,13.923665,-2.801290,9.907196,-10.513748,-108.1192,-19.2151,30.2154
17404,55.590984,37.671501,176.600006,nan,11,1,2.110489,-1.657985,9.069236,3.923664,13.557251,4.564886,-2.329468,9.160092,-10.153666,-107.2283,-19.2029,28.7006
17504,55.590984,37.671501,176.600006,nan,11,1,0.623690,-2.498349,6.781576,9.206108,27.129768,8.503817,-2.773830,6.656135,-9.017829,-105.3175,-19.1942,25.6899
17604,55.590984,37.671501,176.600006,nan,11,1,-0.035913,-1.751358,7.192182,22.473279,-0.183206,-7.282442,-3.286470,6.632666,-9.752974,-103.1432,-19.8917,25.9124
17704,55.590984,37.671501,176.600006,nan,11,1,0.764947,-4.824316,12.394783,6.229008,17.893127,-17.496183,-5.522707,11.910418,-7.541376,-102.0338,-22.0024,24.4824
17804,55.590984,37.671501,176.600006,nan,11,1,0.185551,-0.307655,10.924743,24.274806,-16.717557,-16.290075,-4.096307,10.028133,-11.268129,-100.4043,-23.2470,26.6122
17904,55.590984,37.671501,176.600006,nan,11,1,0.630872,0.457293,10.612299,-19.068702,-1.938931,-21.251909,-3.141789,9.921142,-12.026586,-102.5579,-25.3023,27.2375
18004,55.590984,37.671501,176.600006,nan,11,1,0.511162,-0.709881,7.484274,-15.374046,10.748091,-11.786259,-2.457030,7.084806,-10.546990,-103.7205,-26.6864,26.3605
18104,55.590984,37.671501,176.600006,nan,11,1,0.323217,-1.401805,7.232883,-27.725191,1.267176,-13.496183,-2.722262,6.836505,-10.292054,-106.5921,-28.0276,26.5810
18204,55.590984,37.671501,176.600006,nan,11,1,0.921768,-1.106121,8.840590,-10.167939,-17.190839,-3.404580,-2.735968,8.454220,-10.933523,-108.5376,-27.8629,28.5575
18347,55.590957,37.671432,172.800003,nan,11,1,1.471237,-1.423353,11.793838,18.656486,-20.961832,24.809160,-4.074140,11.182081,-11.090210,-106.7759,-23.5463,30.4964
18447,55.590957,37.671432,172.800003,nan,11,1,1.537077,-1.368286,10.811018,3.618321,1.068702,30.366413,-3.527987,10.374999,-10.819384,-105.9875,-20.6697,29.4287
18547,55.590957,37.671432,172.800003,nan,11,1,1.306037,-1.784877,9.035717,-13.786259,-10.259542,12.931298,-3.230283,8.706479,-10.352720,-107.6039,-19.1441,30.1022
18647,55.590957,37.671432,172.800003,nan,11,1,1.349133,-2.217031,7.356185,-13.755725,5.083969,13.435114,-2.552266,7.369129,-9.631375,-108.6702,-18.0172,29.1591
18747,55.590957,37.671432,172.800003,nan,11,1,0.398635,-0.521936,7.467515,8.396946,21.984733,18.458015,-2.456707,6.923912,-11.296326,-106.9609,-16.9723,26.3476
18847,55.590957,37.671432,172.800003,nan,11,1,0.774524,-1.370680,10.927137,7.206106,15.618320,-4.335878,-3.456714,10.398418,-11.150159,-105.8229,-17.8427,24.9179
18947,55.590957,37.671432,172.800003,nan,11,1,-1.509544,0.149638,9.378088,22.977098,1.404580,-22.748088,-4.445245,7.936796,-12.544662,-103.6814,-20.0696,25.4275
19047,55.590957,37.671432,172.800003,nan,11,1,0.494403,-0.059855,11.807006,0.625954,9.053436,-30.992364,-3.525677,11.043444,-12.101285,-103.5652,-23.2950,25.2714
19147,55.590957,37.671432,172.800003,nan,11,1,0.582988,1.065420,7.295133,-10.030535,-0.396947,-28.396944,-1.359535,6.878722,-12.157991,-104.8716,-26.0462,26.0386
19247,55.590957,37.671432,172.800003,nan,11,1,0.142455,-0.743400,7.037756,-23.664119,3.053435,-21.038167,-2.375097,6.566592,-10.964983,-107.3577,-28.1579,26.3111
19347,55.590957,37.671432,172.800003,nan,11,1,-0.575805,-1.776498,8.596382,-19.633586,-5.816794,-7.038168,-3.894804,7.770371,-11.162054,-109.7306,-28.6561,27.1790
19447,55.590957,37.671432,172.800003,nan,11,1,-0.050278,-1.854309,10.813412,-25.770992,-8.793892,19.083967,-4.007819,9.978619,-11.982750,-112.4080,-26.5629,27.3881
19547,55.590957,37.671432,172.800003,nan,11,1,0.963666,-1.720234,11.528081,-15.541984,-29.328243,15.755725,-3.609393,10.807274,-12.444761,-115.0175,-23.9883,29.7480
19647,55.590957,37.671432,172.800003,nan,11,1,2.149993,-1.413776,8.603565,-21.709920,4.412214,13.969465,-1.361411,8.736934,-11.373530,-116.7477,-22.9090,28.6638
19747,55.590957,37.671432,172.800003,nan,11,1,0.647632,-1.760935,7.095217,-0.076336,0.229008,25.221376,-2.260725,6.872699,-11.038542,-116.2670,-20.6670,27.4092
19847,55.590957,37.671432,172.800003,nan,11,1,0.703895,-2.463634,6.628347,-17.236640,8.656489,21.770992,-2.174965,6.740603,-10.384358,-117.3344,-19.0978,25.5498
19947,55.590957,37.671432,172.800003,nan,11,1,-0.685939,-1.985990,7.726089,-4.122138,6.961832,9.389312,-3.288794,7.044320,-11.721986,-117.3832,-18.5834,24.4391
20047,55.590957,37.671432,172.800003,nan,11,1,-0.199916,-3.575740,11.056424,-12.793892,-24.839693,-11.022901,-4.729475,10.366208,-12.096668,-119.5746,-18.4197,27.3009
20147,55.590957,37.671432,172.800003,nan,11,1,0.035913,-1.088165,8.961498,-4.122138,0.274809,-3.328244,-2.787795,7.908116,-13.150859,-120.0336,-18.7228,27.4489
20247,55.590957,37.671432,172.800003,nan,11,1,1.814805,-0.416591,9.837776,-7.648855,-9.236641,-14.259541,-1.302582,9.138424,-13.684973,-121.3114,-19.4949,29.0468
20379,55.590942,37.671405,171.500000,nan,11,1,0.191536,-2.154782,6.494272,-27.526718,-1.465649,-16.503816,-2.531570,6.099665,-11.606810,-125.4042,-21.2556,30.4231
20480,55.590942,37.671405,171.500000,nan,11,1,1.043872,-1.940501,8.160637,-41.419845,-27.297708,12.412213,-2.110795,7.511961,-13.057219,-130.1792,-18.6365,32.0551
20580,55.590942,37.671405,171.500000,nan,11,1,0.622492,-4.317943,9.478645,-23.496183,-6.854961,18.900762,-3.861939,9.258786,-12.676693,-132.2942,-16.7502,31.3209
20680,55.590942,37.671405,171.500000,nan,11,1,1.327585,-4.827908,9.369709,-21.755723,-37.740455,11.633588,-3.827240,9.497413,-12.637550,-135.0744,-13.3499,33.4187
20780,55.590942,37.671405,171.500000,nan,11,1,2.315193,-4.582502,8.486248,-2.274809,-11.404581,20.824426,-2.631849,9.285406,-12.093669,-135.1431,-11.0719,32.7311
20880,55.590942,37.671405,171.500000,nan,11,1,1.598130,-4.209007,6.199785,-14.427481,-42.625953,15.374046,-2.688575,7.026268,-11.259305,-136.9609,-6.9659,34.6842
20980,55.590942,37.671405,171.500000,nan,11,1,0.824802,-4.459201,5.981913,-8.458015,-0.488550,10.442749,-3.281650,6.619340,-11.134491,-137.7175,-6.2174,33.9489
21080,55.590942,37.671405,171.500000,nan,11,1,1.315614,-4.112041,6.700173,5.190839,-0.473282,14.259541,-2.855193,7.173866,-11.785430,-137.0870,-5.2231,32.9197
21180,55.590942,37.671405,171.500000,nan,11,1,0.184354,-5.172673,8.356962,-5.541985,37.282444,15.435114,-4.188420,8.506494,-12.400112,-137.3058,-6.9026,29.2354
21280,55.590942,37.671405,171.500000,nan,11,1,-0.562637,-4.484340,9.063251,18.900762,0.366412,8.992367,-4.741268,8.304500,-13.141923,-135.3327,-6.3198,28.5446
21380,55.590942,37.671405,171.500000,nan,11,1,-0.058658,-3.608062,9.787497,-9.099237,-36.503818,-34.839694,-4.796659,8.014904,-14.451005,-136.8013,-6.1728,33.6195
21480,55.590942,37.671405,171.500000,nan,11,1,1.085770,-3.154361,8.346188,-12.625955,3.251908,-3.206107,-3.096534,7.457390,-13.754631,-138.0651,-6.6294,33.6306
21580,55.590942,37.671405,171.500000,nan,11,1,0.590171,-3.694253,7.229292,-18.748090,2.534351,1.007634,-3.318158,6.773571,-12.867210,-139.9115,-6.7505,33.3847
21680,55.590942,37.671405,171.500000,nan,11,1,-0.138864,-4.088099,7.984663,-11.038168,3.984733,16.335878,-4.132460,7.100798,-13.410553,-140.8370,-6.0034,31.8678
21780,55.590942,37.671405,171.500000,nan,11,1,-0.099359,-4.122815,8.119935,-18.137405,-14.244276,6.290076,-4.200784,7.046127,-13.762194,-142.6940,-4.5017,32.2819
21880,55.590942,37.671405,171.500000,nan,11,1,0.840365,-4.352659,9.208100,-12.259541,-0.122137,16.274808,-3.633993,8.256696,-14.608945,-143.8187,-3.5057,30.9908
21980,55.590942,37.671405,171.500000,nan,11,1,1.454478,-4.412514,8.969877,22.473279,16.122137,23.664119,-2.759769,8.780720,-13.969236,-141.3960,-3.4100,28.1236
22080,55.590942,37.671405,171.500000,nan,11,1,0.418985,-4.708198,8.589200,11.740458,0.442748,40.488548,-3.414432,8.476289,-13.357878,-140.0318,-0.9184,24.9263
22180,55.590942,37.671405,171.500000,nan,11,1,-0.586579,-4.045004,6.909666,-6.473282,2.458015,32.702289,-3.432318,6.709540,-12.572672,-140.6364,0.9939,22.2617
22280,55.590942,37.671405,171.500000,nan,11,1,-2.118869,-4.162320,7.429208,14.580152,6.839694,37.312973,-4.735688,6.836353,-12.607574,-139.2360,2.8317,18.9426
22382,55.590923,37.671394,171.500000,1.409578,11,1,-1.555034,-4.574122,8.737640,4.977099,0.839695,26.152671,-4.419315,8.268647,-13.239756,-138.8310,4.5086,16.8637
22482,55.590923,37.671394,171.500000,1.409578,11,1,-1.130063,-3.683479,9.998187,8.839694,-19.007633,-16.122137,-4.586210,8.404325,-14.617346,-137.7527,4.8781,19.3362
22582,55.590923,37.671394,171.500000,1.409578,11,1,0.761356,-2.527080,9.625888,13.755725,-18.793893,-18.717557,-2.897237,7.987121,-15.044534,-136.1510,5.0109,21.9950
22682,55.590923,37.671394,171.500000,1.409578,11,1,0.470461,-1.523909,8.763976,-12.167939,11.801527,-18.183206,-2.519863,6.598980,-15.233865,-137.3245,2.9002,22.4907
22782,55.590923,37.671394,171.500000,1.409578,11,1,-0.056264,-1.482011,7.175423,-55.999996,27.587785,-21.358776,-2.087027,5.096167,-14.639828,-142.9397,-0.5759,22.1906
22882,55.590923,37.671394,171.500000,1.409578,11,1,-1.125275,-4.237737,7.088034,-62.549613,3.282443,-35.557250,-3.886879,6.209811,-13.780981,-149.2212,-2.9807,24.8303
22982,55.590923,37.671394,171.500000,1.409578,11,1,-0.824802,-4.691438,8.643069,33.312976,-33.862594,-6.351145,-4.680981,7.401919,-14.355556,-146.0085,-0.3964,27.1119
23083,55.590923,37.671394,171.500000,1.409578,11,1,-0.496797,-5.468357,9.904813,-0.503817,-2.992366,19.709922,-4.881342,8.824566,-14.959766,-146.0492,0.9671,25.6303
23183,55.590923,37.671394,171.500000,1.409578,11,1,0.987608,-4.224569,8.568848,3.725191,-14.137405,35.007633,-2.723205,7.886035,-14.565023,-145.7123,4.0949,23.5156
23283,55.590923,37.671394,171.500000,1.409578,11,1,1.144428,-4.380192,7.566874,-3.709923,4.519084,25.725189,-2.089420,7.603699,-13.752720,-146.2537,5.1708,21.1295
23383,55.590923,37.671394,171.500000,1.409578,11,1,-0.020351,-2.946065,6.859388,18.290077,12.412213,2.595420,-2.496120,5.880958,-13.668596,-144.5066,4.2829,20.2205
23483,55.590923,37.671394,171.500000,1.409578,11,1,-1.310825,-3.578135,7.593211,9.312977,8.549619,6.854961,-3.920710,6.452746,-13.701295,-143.6543,3.9848,19.1630
23583,55.590923,37.671394,171.500000,1.409578,11,1,-0.602142,-3.573346,9.101558,1.465649,4.870229,-8.885497,-3.606965,7.513809,-14.954680,-143.4780,3.0659,19.5911
23683,55.590923,37.671394,171.500000,1.409578,11,1,-1.273715,-3.558981,10.840946,7.954198,6.106870,3.877862,-4.549769,8.375862,-16.206599,-142.7187,2.8059,18.9150
23783,55.590923,37.671394,171.500000,1.409578,11,1,-0.130484,-2.482787,9.981428,-16.366411,-19.007633,-21.862592,-3.359962,7.111539,-16.435890,-144.2137,2.9940,21.8094
23883,55.590923,37.671394,171.500000,1.409578,11,1,-0.248997,-2.626439,8.329428,-18.167936,20.061069,-11.709924,-2.804899,6.236656,-15.245052,-146.0422,0.6819,21.5859
23983,55.590923,37.671394,171.500000,1.409578,11,1,-0.483629,-2.451663,6.894104,-10.824428,0.320611,-17.190839,-2.690037,5.161866,-14.266701,-147.1078,-0.3049,22.9940
24083,55.590923,37.671394,171.500000,1.409578,11,1,-0.979228,-2.603694,7.608773,-13.251909,17.954198,-4.320611,-3.097300,5.431671,-14.957884,-148.4298,-2.0472,22.3818
24183,55.590923,37.671394,171.500000,1.409578,11,1,-1.772906,-3.101688,8.644266,9.358779,15.251909,8.809161,-3.974832,6.262357,-15.504947,-147.4385,-2.8854,20.8317
24310,55.590923,37.671394,171.500000,1.409578,11,1,-2.433706,-4.475960,10.404004,-12.534352,10.519084,34.717552,-4.754366,8.209347,-16.455188,-148.8069,-1.6384,16.3910
24410,55.590923,37.671394,171.500000,1.409578,11,1,-0.749385,-3.792415,7.941567,-30.885496,-28.396944,14.091603,-2.881375,6.533957,-15.004492,-151.9030,1.5206,16.6564
24510,55.590923,37.671394,171.500000,1.409578,11,1,-0.202310,-3.787627,8.076840,-10.610688,-12.595420,2.229007,-2.509257,6.600386,-15.262008,-152.9535,2.7367,17.0531
24610,55.590923,37.671394,171.500000,1.409578,11,1,-0.799663,-3.645172,6.703765,0.366412,-4.549618,16.091602,-2.764279,5.757552,-14.058304,-152.9755,3.8736,15.8254
24710,55.590923,37.671394,171.500000,1.409578,11,1,-1.114501,-3.482366,8.085220,8.229008,4.809160,18.335878,-3.131490,6.273326,-15.245301,-152.2780,4.2784,13.9693
24810,55.590923,37.671394,171.500000,1.409578,11,1,-1.369483,-3.208230,9.789891,8.320611,9.099237,2.412214,-3.487610,6.872609,-16.779025,-151.4936,3.5851,13.3307
24910,55.590923,37.671394,171.500000,1.409578,11,1,-1.180341,-3.248932,11.830948,25.328245,-8.167940,-11.893130,-3.939132,8.162863,-18.159554,-148.8709,3.7352,14.7685
25010,55.590923,37.671394,171.500000,1.409578,11,1,0.338780,-2.782062,9.060856,-26.763359,-14.977099,-24.992366,-2.149128,6.436227,-16.433110,-151.3570,3.7253,17.6883
25110,55.590923,37.671394,171.500000,1.409578,11,1,-0.393846,-2.987964,7.255628,-8.396946,-20.351142,-20.900762,-2.853157,5.385103,-14.765213,-152.0137,4.5095,20.5041
25210,55.590923,37.671394,171.500000,1.409578,11,1,-0.383072,-2.788048,7.420828,-7.145038,2.793893,-3.068702,-2.787839,5.232574,-15.082706,-152.7172,4.1187,20.6444
25310,55.590923,37.671394,171.500000,1.409578,11,1,-1.088165,-3.041833,8.541315,-15.175572,9.740459,7.465649,-3.554685,5.575730,-16.104774,-154.3147,3.5953,19.5315
25410,55.590923,37.671394,171.500000,1.409578,11,1,-0.312443,-3.823540,10.072407,-11.877863,6.045802,14.946564,-3.114150,7.025151,-17.364414,-155.6036,3.6982,17.9193
25510,55.590923,37.671394,171.500000,1.409578,11,1,0.102951,-3.948039,10.380062,-25.984733,-21.938928,6.458015,-3.063267,6.911675,-17.942278,-158.1815,5.9630,18.2381
25610,55.590923,37.671394,171.500000,1.409578,11,1,0.621295,-5.031415,8.231266,-12.519083,7.145038,22.061067,-2.095431,7.281753,-15.809993,-159.6750,6.1196,15.9118
25710,55.590923,37.671394,171.500000,1.409578,11,1,-0.621295,-3.264494,7.134721,2.244275,-4.106870,17.877862,-2.640390,5.047908,-15.237501,-159.6151,7.1257,14.3692
25810,55.590923,37.671394,171.500000,1.409578,11,1,-0.945710,-3.410540,7.517793,9.786259,-4.595420,17.786256,-3.025084,5.357222,-15.391666,-158.8249,8.1760,12.8503
25910,55.590923,37.671394,171.500000,1.409578,11,1,-0.902614,-3.554192,8.629900,-0.778626,7.984733,9.343512,-3.070811,5.903193,-16.413055,-159.0693,7.7689,11.6787
26010,55.590923,37.671394,171.500000,1.409578,11,1,-1.193510,-3.529053,10.165781,2.351145,-1.053435,1.343511,-3.663483,6.353320,-17.771322,-158.8462,7.9153,11.5901
26110,55.590923,37.671394,171.500000,1.409578,11,1,-0.361524,-2.470816,10.471041,-4.305344,-22.839694,-22.778623,-3.251479,5.436829,-18.509931,-158.8668,9.2234,14.5670
26210,55.590923,37.671394,171.500000,1.409578,11,1,-0.168791,-2.580950,9.097967,-0.748092,5.343511,-21.221374,-2.773016,5.142660,-17.244810,-158.6515,7.9599,16.3772
26359,55.590896,37.671455,170.899993,1.409578,11,1,-0.575805,-2.801216,7.584831,0.916030,8.030535,-16.961832,-2.833216,4.763777,-15.721660,-158.2467,5.9254,18.3141
26459,55.590896,37.671455,170.899993,1.409578,11,1,-1.114501,-2.592921,8.662222,-13.603053,19.526718,-1.496183,-3.202178,4.688823,-16.931286,-159.6677,4.0563,17.7263
26559,55.590896,37.671455,170.899993,1.409578,11,1,-1.188721,-2.953248,9.506178,-14.717556,4.580152,4.213740,-3.369735,5.094436,-17.756100,-161.1788,3.7732,17.1706
26659,55.590896,37.671455,170.899993,1.409578,11,1,-1.735796,-3.728969,9.641450,4.610687,17.740455,16.625953,-3.756498,5.912635,-17.604420,-160.8593,2.6304,15.0199
26759,55.590896,37.671455,170.899993,1.409578,11,1,-0.059855,-3.502717,8.480263,6.091603,2.580152,-5.862595,-1.954805,5.855461,-16.594859,-160.2285,2.1944,15.4897
26859,55.590896,37.671455,170.899993,1.409578,11,1,-0.124498,-3.745728,8.779538,-10.152671,-11.251908,-4.244274,-2.275023,5.975431,-16.895004,-161.2139,3.1097,16.2703
26959,55.590896,37.671455,170.899993,1.409578,11,1,-0.474052,-2.588132,7.564480,-7.053435,-19.755725,3.969466,-2.366250,4.314659,-16.125597,-161.9051,5.1079,16.5311
27059,55.590896,37.671455,170.899993,1.409578,11,1,-0.995988,-3.479972,7.722497,-0.732824,-4.473282,-3.877862,-3.184179,4.989278,-15.947274,-161.9330,5.4127,17.0406
27159,55.590896,37.671455,170.899993,1.409578,11,1,-0.778116,-3.519476,9.556456,15.374046,14.320611,-7.465649,-3.179782,5.843929,-17.556199,-160.3704,3.8197,17.3075
27259,55.590896,37.671455,170.899993,1.409578,11,1,-1.100136,-3.780444,11.664551,17.877862,-3.587786,-17.648855,-4.144623,6.817771,-19.182358,-158.4636,3.5647,19.0943
27359,55.590896,37.671455,170.899993,1.409578,11,1,-0.108936,-2.491167,8.991425,5.389312,-4.870229,-12.320611,-2.520774,5.141999,-17.173403,-157.8422,3.5655,20.4217
27459,55.590896,37.671455,170.899993,1.409578,11,1,-0.403423,-2.294842,8.781932,1.587786,9.160305,-8.916030,-2.606457,4.850759,-17.033537,-157.6535,2.3808,20.9029
27559,55.590896,37.671455,170.899993,1.409578,11,1,-0.982820,-2.354697,7.546524,0.183206,13.709923,-7.694656,-2.815510,4.326518,-15.874162,-157.6272,0.8202,21.0934
27659,55.590896,37.671455,170.899993,1.409578,11,1,-1.534683,-2.482787,8.037336,-26.961832,-0.442748,-7.816794,-3.362377,4.088059,-16.522336,-160.3128,0.5636,21.8332
27759,55.590896,37.671455,170.899993,1.409578,11,1,-1.076194,-2.451663,9.453506,-5.435114,-11.251908,12.595420,-3.217848,4.564492,-17.890491,-160.8643,2.0474,21.0263
27859,55.590896,37.671455,170.899993,1.409578,11,1,-2.015918,-3.873818,9.870097,-17.618320,26.381677,-2.137405,-4.131019,5.550334,-18.090229,-162.6498,-0.5151,20.3630
27959,55.590896,37.671455,170.899993,1.409578,11,1,-0.296881,-3.432088,8.019379,-14.274808,-25.496181,9.496184,-2.423320,4.969319,-16.560256,-164.0760,2.2017,20.2169
28059,55.590896,37.671455,170.899993,1.409578,11,1,-0.646434,-4.088099,8.407239,16.488550,-3.267176,9.847328,-3.052307,5.744734,-16.551541,-162.4601,2.7860,19.3590
28160,55.590896,37.671455,170.899993,1.409578,11,1,-0.952892,-3.157952,6.823475,-17.099237,-25.374046,11.450381,-3.017241,4.138641,-15.393097,-164.2032,5.5782,19.0282
28260,55.590892,37.671497,171.399993,1.409578,11,1,-0.738611,-3.452439,7.923611,6.702290,6.122138,17.480916,-2.940776,4.885578,-16.343580,-163.7135,5.4650,17.1707
28377,55.590892,37.671497,171.399993,1.409578,11,1,-1.175553,-3.434482,10.326192,12.412213,10.213740,5.480916,-3.576051,5.628683,-18.486375,-162.3522,4.4978,16.2157
28477,55.590892,37.671497,171.399993,1.409578,11,1,-1.215057,-2.313996,11.486183,-15.984732,-37.251907,-19.419845,-4.199869,4.299571,-19.937698,-163.7163,7.4589,19.2048
28577,55.590892,37.671497,171.399993,1.409578,11,1,-0.162806,-2.803610,9.196129,-34.458011,-28.045801,-21.862592,-3.243617,3.897377,-17.976407,-166.7844,9.5380,22.1144
28677,55.590892,37.671497,171.399993,1.409578,11,1,-0.016759,-2.716222,6.817489,-9.664123,-1.847328,-21.984733,-2.604661,3.365524,-15.785386,-167.3841,9.2152,24.3275
28777,55.590892,37.671497,171.399993,1.409578,11,1,-0.316035,-3.038242,7.787141,2.839694,28.473281,-3.679389,-2.900085,3.846720,-16.644969,-167.1428,6.3563,24.0612
28877,55.590892,37.671497,171.399993,1.409578,11,1,-0.694318,-2.881422,8.708909,0.946565,13.267176,13.374045,-3.125795,3.832386,-17.563711,-167.2262,5.3604,22.4522
28977,55.590892,37.671497,171.399993,1.409578,11,1,-0.666785,-3.281253,10.384850,2.854962,0.564885,23.587783,-3.413739,4.614447,-19.086176,-167.1578,5.8268,20.1291
29077,55.590892,37.671497,171.399993,1.409578,11,1,-0.666785,-3.544615,10.687717,-0.977099,-9.007633,22.610687,-3.578309,4.911456,-19.309781,-167.4600,7.2076,18.1144
29177,55.590892,37.671497,171.399993,1.409578,11,1,-0.940921,-3.784036,8.207324,-26.442749,12.076336,11.022901,-3.150184,4.394327,-17.109435,-170.2735,6.2681,16.7656
29277,55.590892,37.671497,171.399993,1.409578,11,1,-0.918176,-2.843115,6.222530,-6.427480,-2.748092,2.076336,-2.581733,3.183045,-15.360848,-170.9336,6.5741,16.6064
29377,55.590892,37.671497,171.399993,1.409578,11,1,-1.211466,-3.088520,6.749255,16.030532,5.618320,5.786259,-2.953813,3.603943,-15.709669,-169.4066,6.1105,15.9421
29477,55.590892,37.671497,171.399993,1.409578,11,1,-0.956484,-3.214216,9.418790,9.480916,15.343511,-1.893130,-2.948984,4.393923,-18.289372,-168.4688,4.5674,15.8456
29577,55.590892,37.671497,171.399993,1.409578,11,1,-1.545457,-2.789245,11.097126,-9.694657,-14.793892,-7.877862,-3.879971,3.828158,-19.985332,-169.3530,5.8595,16.9166
29677,55.590892,37.671497,171.399993,1.409578,11,1,-1.537077,-2.557007,8.978257,-13.236640,-27.389312,-15.557251,-3.887139,2.902940,-17.929031,-170.4678,8.2638,18.9623
29777,55.590892,37.671497,171.399993,1.409578,11,1,-1.104924,-2.406173,8.214507,-4.824428,-15.297710,-24.763359,-3.553306,2.591450,-17.232756,-170.5588,9.3624,21.6860
29877,55.590892,37.671497,171.399993,1.409578,11,1,-1.164779,-2.363077,7.569269,-8.351145,13.083970,-15.236640,-3.319328,2.388788,-16.699431,-171.1815,7.8218,22.9918
29977,55.590892,37.671497,171.399993,1.409578,11,1,-1.183933,-2.227805,7.953538,-1.328244,20.106868,3.603053,-3.092434,2.396423,-17.176697,-171.4056,5.8901,22.3213
30077,55.590892,37.671497,171.399993,1.409578,11,1,-0.403423,-2.420538,10.436326,9.587787,14.900763,8.381680,-2.592266,3.391023,-19.641271,-170.5552,4.5420,21.2643
30177,55.590892,37.671497,171.399993,1.409578,11,1,-1.642422,-2.920926,10.431537,-24.717555,-6.977099,25.603055,-3.814702,3.064326,-19.609929,-173.2185,5.6504,18.8456
30277,55.590873,37.671508,171.899993,1.409578,11,1,-0.673968,-3.532644,9.018959,-22.870229,-32.671756,-11.389312,-3.346868,3.292248,-18.305768,-175.3555,8.7602,20.3697
30381,55.590873,37.671508,171.899993,0.817967,11,1,0.646434,-2.103306,7.915231,-3.297710,-29.786256,-11.022901,-1.882997,2.176757,-17.501369,-175.4837,11.7550,21.7796
30481,55.590873,37.671508,171.899993,0.817967,11,1,-0.584185,-3.259706,7.395689,0.259542,28.564884,4.473282,-2.945598,2.955746,-16.752885,-175.5974,8.9426,21.0944
30581,55.590873,37.671508,171.899993,0.817967,11,1,-0.231040,-3.063381,8.971075,22.244272,14.854961,-14.580152,-2.791173,3.293386,-18.249448,-173.1621,7.3496,22.4506
30681,55.590873,37.671508,171.899993,0.817967,11,1,-0.282516,-2.415750,10.517728,-1.969466,-6.076336,-5.770992,-2.964141,2.682769,-19.834356,-173.2758,7.8842,23.1013
30781,55.590873,37.671508,171.899993,0.817967,11,1,-1.197101,-1.812411,9.886857,3.648855,-14.061070,-14.961832,-3.729902,1.645718,-19.072030,-172.6824,9.1054,24.7675
30881,55.590873,37.671508,171.899993,0.817967,11,1,-0.733823,-1.708263,8.791509,-0.809160,-4.106870,-24.381679,-3.160998,1.589142,-18.066796,-172.3673,9.2022,27.2697
30981,55.590873,37.671508,171.899993,0.817967,11,1,-0.658405,-1.681927,7.095217,-14.656488,0.641221,-19.709922,-2.698906,1.322331,-16.482863,-173.5179,8.8769,29.2401
31081,55.590873,37.671508,171.899993,0.817967,11,1,-1.418565,-1.651999,7.959524,-7.603053,24.167938,-4.610687,-3.182775,1.007450,-17.353201,-174.2493,6.4235,29.4276
31181,55.590873,37.671508,171.899993,0.817967,11,1,-1.055843,-2.061408,10.194511,13.114503,9.969466,3.450382,-3.335967,1.913848,-19.527801,-172.9877,5.4661,28.9816
31281,55.590873,37.671508,171.899993,0.817967,11,1,-1.072602,-2.844312,10.692505,-10.641222,21.816793,21.297710,-3.276295,2.716765,-20.075795,-174.2796,3.5608,26.5905
31381,55.590873,37.671508,171.899993,0.817967,11,1,-0.706290,-2.893393,9.549274,-14.000000,-2.458015,6.870229,-2.772467,2.652607,-19.044415,-175.7206,3.8738,25.9302
31481,55.590873,37.671508,171.899993,0.817967,11,1,-0.942118,-2.061408,8.136695,-17.923664,-24.458013,-8.427481,-2.712644,1.337988,-17.692977,-177.4437,6.2499,26.9554
31581,55.590873,37.671508,171.899993,0.817967,11,1,-0.855927,-2.390610,7.037756,-18.977098,-2.992366,12.335878,-2.558541,1.492247,-16.677218,-179.4749,6.6039,25.7291
31681,55.590873,37.671508,171.899993,0.817967,11,1,-0.709881,-2.997540,8.453927,8.229008,6.076336,-2.900763,-2.824496,2.182700,-18.065954,-178.6191,5.9936,26.0155
31781,55.590873,37.671508,171.899993,0.817967,11,1,-0.248997,-2.796427,10.910378,21.328245,3.954198,-2.931298,-2.693665,2.534243,-20.448085,-176.4565,5.5913,26.3006
31881,55.590873,37.671508,171.899993,0.817967,11,1,-1.557428,-2.239776,10.445902,2.427481,-12.183207,-2.687023,-3.782344,1.381111,-19.823908,-176.1801,6.7906,26.6457
31981,55.590873,37.671508,171.899993,0.817967,11,1,-1.137246,-1.868674,8.823831,0.427481,-15.404581,-15.114503,-3.262191,1.070604,-18.224321,-175.9456,8.2270,28.2678
32081,55.590873,37.671508,171.899993,0.817967,11,1,-0.363919,-1.558625,7.708132,3.511450,-0.702290,-18.274806,-2.334447,1.167292,-17.233953,-175.3301,8.1678,30.1147
32181,55.590873,37.671508,171.899993,0.817967,11,1,-0.784101,-1.314417,8.286333,-6.916030,6.610687,-9.526717,-2.553443,0.686832,-17.807526,-175.8932,7.4314,31.0195
32300,55.590873,37.671508,171.899993,0.817967,11,1,-0.687136,-2.110489,9.537302,-6.381680,5.129771,12.229007,-2.877300,1.395458,-19.061934,-176.8476,6.9267,29.5116
32400,55.590873,37.671508,171.899993,0.817967,11,1,-0.630872,-3.017891,11.301830,8.885497,-5.053435,7.389312,-3.635042,2.326917,-20.697424,-176.0453,7.4720,28.7964
32500,55.590873,37.671508,171.899993,0.817967,11,1,-0.290895,-2.704251,9.170990,-13.694657,-8.030535,23.923662,-2.813292,2.025993,-18.722108,-177.7206,8.4381,26.4451
32600,55.590873,37.671508,171.899993,0.817967,11,1,-0.769736,-2.694674,7.829040,-0.091603,-9.984732,3.038168,-3.140759,1.796050,-17.293803,-177.7689,9.4479,26.1784
32700,55.590873,37.671508,171.899993,0.817967,11,1,-0.509965,-1.693898,8.246829,-5.251908,5.786259,10.961833,-2.416649,0.981262,-17.827652,-178.4801,8.9123,25.0451
32800,55.590873,37.671508,171.899993,0.817967,11,1,0.177171,-1.928529,9.652225,-14.015268,16.687023,-7.786259,-1.789757,1.320760,-19.396667,-179.7665,7.2236,25.7882
32900,55.590873,37.671508,171.899993,0.817967,11,1,-0.426168,-2.296039,11.501746,6.824427,1.083969,-17.618320,-2.799381,1.386228,-21.119714,-178.8608,7.1080,27.5637
33000,55.590873,37.671508,171.899993,0.817967,11,1,-1.083376,-1.401805,9.014170,-26.992364,-0.335878,-36.167938,-2.506925,-0.084064,-18.644200,-181.1090,7.0697,31.2084
33100,55.590873,37.671508,171.899993,0.817967,11,1,-0.843956,-2.205060,7.580042,3.816794,4.091603,-17.419847,-2.609647,0.854920,-17.255841,-180.5104,6.6943,32.9714
33200,55.590873,37.671508,171.899993,0.817967,11,1,-0.978031,-1.119289,7.091625,12.458016,12.870229,-23.297710,-2.059490,0.065224,-16.753214,-178.9898,5.4281,35.3286
33300,55.590873,37.671508,171.899993,0.817967,11,1,-2.151190,-1.886631,8.112753,-5.236641,14.885496,-7.190839,-3.339593,0.000787,-17.734504,-179.4476,3.9271,36.0245
33400,55.590873,37.671508,171.899993,0.817967,11,1,-1.466449,-1.459266,9.873688,-0.748092,-3.984733,-7.679389,-2.694215,-0.078920,-19.527999,-179.4695,4.3181,36.7980
33500,55.590873,37.671508,171.899993,0.817967,11,1,-1.994370,-2.391808,11.204864,-3.312977,12.564886,24.061069,-3.493461,0.512148,-20.887294,-179.9833,3.0840,34.3735
33600,55.590873,37.671508,171.899993,0.817967,11,1,-0.644040,-2.245761,8.919599,1.603053,2.137405,-8.259542,-2.204605,1.235286,-18.674077,-179.7785,2.8700,35.2006
33700,55.590873,37.671508,171.899993,0.817967,11,1,-0.645237,-1.859098,8.259996,-3.832061,-21.786258,-15.083970,-2.201542,0.661764,-17.980718,-180.0857,5.0428,36.7193
33800,55.590873,37.671508,171.899993,0.817967,11,1,0.003591,-2.067393,8.732851,-14.259541,-11.251908,-4.076336,-1.861313,0.900964,-18.539381,-181.4758,6.1686,37.1268
33900,55.590873,37.671508,171.899993,0.817967,11,1,-0.047884,-1.929727,9.088390,-17.801527,1.969466,-3.496183,-1.659020,0.512894,-18.934057,-183.2176,5.9807,37.4835
34000,55.590873,37.671508,171.899993,0.817967,11,1,-1.076194,-2.439692,9.765949,9.801527,4.244274,3.435115,-2.850368,0.412782,-19.511755,-182.2709,5.5377,37.1626
34100,55.590873,37.671508,171.899993,0.817967,11,1,-0.711078,-0.908600,9.478645,17.114503,5.419847,-22.229007,-1.737463,-0.325140,-19.190221,-180.3420,5.0842,39.4157
34200,55.590873,37.671508,171.899993,0.817967,11,1,-1.013944,-1.757344,8.944738,-8.564885,1.603053,-10.061069,-2.383381,0.050366,-18.663378,-181.1089,4.9299,40.4268
34350,55.590873,37.671508,171.899993,0.817967,11,1,-1.262941,-1.260547,7.173028,-20.916030,5.923664,-8.702290,-1.816161,-0.628753,-16.944055,-184.1323,4.0668,41.7540
34450,55.590873,37.671508,171.899993,0.817967,11,1,-1.339556,-1.714248,8.632295,-3.282443,10.809160,7.511450,-2.022813,-0.396426,-18.466941,-184.5083,2.9345,41.0810
34550,55.590873,37.671508,171.899993,0.817967,11,1,-2.091335,-2.263718,10.257958,3.297710,5.282443,28.244272,-2.871339,-0.376249,-20.118665,-184.3207,2.1859,38.3032
34650,55.590873,37.671508,171.899993,0.817967,11,1,-0.474052,-1.625663,8.804677,-29.862594,-19.664121,15.221373,-1.171963,-0.269961,-18.691664,-187.3705,4.0321,36.6360
34750,55.590873,37.671508,171.899993,0.817967,11,1,-1.009156,-2.513912,8.784326,-24.290075,-23.694654,16.412212,-2.174758,-0.337527,-18.731841,-189.9357,6.1714,34.6996
34850,55.590873,37.671508,171.899993,0.817967,11,1,-1.367089,-2.097321,7.210138,-11.206108,-12.885497,9.190840,-2.284740,-0.724201,-17.052978,-191.1782,7.2821,33.5654
34950,55.590873,37.671508,171.899993,0.817967,11,1,-0.966060,-2.254141,7.611167,2.167939,2.335878,-6.152672,-2.045204,-0.451035,-17.524033,-190.8785,7.1722,34.2195
35050,55.590873,37.671508,171.899993,0.817967,11,1,-0.945710,-2.644396,9.090785,2.015267,14.045802,-9.343512,-2.109055,-0.347559,-19.078147,-190.5282,5.9692,35.4115
35150,55.590873,37.671508,171.899993,0.817967,11,1,-0.111330,-1.321599,10.140642,-13.358779,2.946565,-23.480915,-0.487187,-1.323556,-19.935939,-191.6171,6.1085,37.7868
35250,55.590873,37.671508,171.899993,0.817967,11,1,-1.525106,-2.686294,11.723209,-8.519084,16.412212,-18.763359,-2.038736,-1.525445,-21.659596,-192.2369,4.8788,39.9675
35350,55.590873,37.671508,171.899993,0.817967,11,1,-1.296460,-1.189918,8.392874,-13.435114,7.022901,-25.954198,-0.934475,-1.922324,-18.111376,-193.3512,4.7425,42.6626
35450,55.590873,37.671508,171.899993,0.817967,11,1,-1.258153,-2.191892,8.050503,12.366412,-9.633587,-38.854961,-1.882988,-1.248112,-17.936503,-191.8194,6.5771,46.2329
35550,55.590873,37.671508,171.899993,0.817967,11,1,-1.605312,-1.589750,7.058106,-2.503817,1.343511,-12.000000,-1.719313,-1.730255,-16.804605,-191.9312,6.6914,47.4429
35650,55.590873,37.671508,171.899993,0.817967,11,1,-0.875081,-2.106898,10.371683,19.236640,12.259541,-14.396947,-1.501548,-1.263124,-20.243434,-189.8125,5.7895,49.1163
35750,55.590873,37.671508,171.899993,0.817967,11,1,-1.753753,-2.069787,10.612299,-3.282443,36.015266,23.068700,-1.522175,-1.455238,-20.555874,-190.3090,1.8476,47.4485
35850,55.590873,37.671508,171.899993,0.817967,11,1,-1.505953,-1.976413,9.684546,-11.496184,-10.824428,-17.450380,-1.368227,-1.539588,-19.590420,-191.4095,3.2248,48.9725
35950,55.590873,37.671508,171.899993,0.817967,11,1,-1.460463,-1.830367,8.317457,-19.297710,-32.152671,-17.022899,-1.472897,-1.956995,-18.093026,-193.2811,6.7133,50.0067
36050,55.590873,37.671508,171.899993,0.817967,11,1,-0.912191,-2.455254,7.018602,-20.290077,-1.328244,-5.541985,-1.551396,-1.061244,-17.058413,-195.2502,6.9699,50.5191
36150,55.590873,37.671508,171.899993,0.817967,11,1,-0.189142,-2.333150,8.918402,17.725191,26.259540,-33.297710,-0.822787,-0.692078,-18.964232,-193.0005,5.3122,54.4514
36254,55.590873,37.671508,171.899993,0.817967,11,1,-1.593341,-1.890222,10.747571,11.587787,4.290076,2.534351,-1.177536,-2.237120,-20.541205,-191.8099,4.8182,54.2942
36399,55.590827,37.671566,172.399993,0.817967,11,1,-0.767342,-0.399832,9.198523,-30.305343,-10.564886,-29.312974,0.818393,-2.723784,-18.597141,-195.8799,7.1876,58.1548
36499,55.590827,37.671566,172.399993,0.817967,11,1,-1.462857,-1.369483,7.545327,-9.099237,-16.000000,-21.312976,-0.620167,-2.736395,-17.091904,-196.5865,9.3097,59.7797
36599,55.590827,37.671566,172.399993,0.817967,11,1,-1.406593,-1.620874,7.234080,12.809160,2.122137,-8.595420,-0.983637,-2.419678,-16.885864,-195.1606,9.3517,60.6759
36699,55.590827,37.671566,172.399993,0.817967,11,1,-1.813608,-1.885434,8.956709,8.458015,12.580152,6.183206,-1.170478,-2.859961,-18.611040,-194.3589,7.9758,60.4045
36799,55.590827,37.671566,172.399993,0.817967,11,1,-1.502362,-1.729811,10.477027,-3.740458,7.755725,15.450381,-0.533492,-2.886634,-20.121695,-194.9158,6.8412,59.0873
36899,55.590827,37.671566,172.399993,0.817967,11,1,-1.515530,-1.680730,11.112688,-17.526718,-9.648856,27.526718,-0.232754,-3.301173,-20.653843,-197.0173,7.0651,56.1581
36999,55.590827,37.671566,172.399993,0.817967,11,1,-1.344344,-2.218228,8.740034,-38.610687,5.954198,22.503814,-0.439962,-2.454937,-18.575670,-201.1235,5.8371,54.1654
37099,55.590827,37.671566,172.399993,0.817967,11,1,-1.347936,-1.934515,7.001843,13.541985,-0.763359,6.381680,-0.775965,-1.985448,-16.880613,-199.8330,5.6784,53.5394
37199,55.590827,37.671566,172.399993,0.817967,11,1,-1.765724,-1.538275,8.277953,0.961832,0.656488,7.419847,-0.448484,-2.840232,-17.914703,-199.8040,5.3649,52.8603
37299,55.590827,37.671566,172.399993,0.817967,11,1,-1.880645,-1.258153,8.995017,-9.343512,1.877863,-0.106870,-0.010168,-3.344038,-18.458090,-200.7314,5.1918,52.9343
37399,55.590827,37.671566,172.399993,0.817967,11,1,-2.730587,-1.242591,10.229228,8.854962,-9.526717,-13.557251,-0.427706,-4.468131,-19.475679,-199.7614,6.5627,53.8689
37499,55.590827,37.671566,172.399993,0.817967,11,1,-0.051475,-0.852336,9.573216,-24.442749,-9.923664,-47.969467,1.536919,-2.736894,-18.890861,-201.7249,9.1185,58.0754
37599,55.590827,37.671566,172.399993,0.817967,11,1,-0.581791,-1.741782,8.729260,2.427481,-13.603053,-42.961833,0.174774,-2.810784,-18.270763,-200.9224,11.9724,61.6075
37699,55.590827,37.671566,172.399993,0.817967,11,1,-0.936133,-2.179921,6.848614,-5.160305,-5.679389,-33.618320,-0.761063,-2.527297,-16.556870,-200.8155,13.7034,64.6102
37799,55.590827,37.671566,172.399993,0.817967,11,1,-0.921768,-1.985990,9.204509,3.770992,4.534351,-15.526718,-0.077304,-3.379579,-18.643463,-200.0452,13.8313,66.2699
37899,55.590827,37.671566,172.399993,0.817967,11,1,-0.572214,-2.142811,10.864888,-6.778625,-4.045802,-4.824428,0.377848,-3.722802,-20.245177,-200.6457,14.3768,66.5938
37999,55.590827,37.671566,172.399993,0.817967,11,1,-0.726640,-3.361459,12.155363,-14.259541,-20.167938,6.351145,-0.355409,-4.414258,-21.637469,-202.4062,16.0401,65.2462
38099,55.590827,37.671566,172.399993,0.817967,11,1,1.589750,-3.432088,8.827423,-4.778625,-2.732824,1.786260,-0.216469,-1.133550,-19.340701,-202.9615,16.2247,64.9660
38199,55.590827,37.671566,172.399993,0.817967,11,1,-0.875081,-1.770512,8.112753,8.931297,21.694656,9.038168,0.085440,-3.143025,-17.541722,-202.0643,13.8745,64.9807
38347,55.590827,37.671566,172.399993,0.817967,11,1,-1.696292,-1.687912,8.738837,16.244274,15.587786,-12.198472,-0.193838,-3.760964,-18.047481,-199.0328,12.4147,67.5968
38447,55.590827,37.671566,172.399993,0.817967,11,1,-1.516727,-2.036268,9.649830,1.236641,0.137405,-31.190839,-0.216400,-3.899147,-18.989019,-198.2591,13.4188,70.6206
