time_ms,lat,lon,alt_m,speed_mps,sats,fix,ax,ay,az,gx,gy,gz,roll_deg,pitch_deg,yaw_deg
0,55.751244,37.618427789,156.0,2.0,14,1,-0.002161,0.077406,9.804424,1.42106,0.686968,1.130079,0.0,0.584128,30.0
100,55.75124574,37.618429387,156.004,2.006,14,1,0.014575,0.075846,9.80391,1.400048,0.682304,1.20979,0.139886,0.652448,30.117496
200,55.751247486,37.618431003,156.008,2.012,14,1,0.028968,0.081082,9.79508,1.355863,0.665577,1.213864,0.279086,0.719138,30.234969
300,55.751249235,37.618432635,156.012,2.018,14,1,0.029149,0.077113,9.822074,1.325637,0.630025,1.188657,0.41692,0.784031,30.352395
400,55.751250989,37.618434284,156.016,2.024,14,1,0.050849,0.074098,9.820555,1.352924,0.642472,1.13973,0.552711,0.846964,30.46975
500,55.751252747,37.618435949,156.02,2.03,14,1,0.055254,0.053709,9.762198,1.296915,0.569589,1.198354,0.685796,0.90778,30.587012
600,55.751254507,37.618437631,156.024,2.036,14,1,0.065377,0.056586,9.833105,1.248258,0.571044,1.161972,0.815521,0.966327,30.704157
700,55.75125627,37.61843933,156.028,2.041,14,1,0.065459,0.085327,9.830473,1.245763,0.568265,1.183627,0.941252,1.022458,30.821162
800,55.751258034,37.618441045,156.032,2.047,14,1,0.062259,0.060199,9.809833,1.201137,0.515027,1.237598,1.062372,1.076034,30.938004
900,55.751259798,37.618442776,156.036,2.053,14,1,0.066837,0.052134,9.83611,1.173894,0.510158,1.190622,1.17829,1.126921,31.05466
1000,55.751261563,37.618444524,156.04,2.058,14,1,0.107478,0.064616,9.793768,1.054817,0.494794,1.120032,1.288435,1.17499,31.171106
1100,55.751263328,37.618446287,156.044,2.064,14,1,0.092992,0.066998,9.817376,1.026784,0.453686,1.230552,1.39227,1.220123,31.28732
1200,55.751265091,37.618448065,156.048,2.069,14,1,0.107603,0.051003,9.813885,0.909501,0.433795,1.141246,1.489286,1.262206,31.40328
1300,55.751266852,37.618449859,156.051,2.075,14,1,0.102435,0.068113,9.812056,0.850434,0.31794,1.122895,1.579007,1.301135,31.518963
1400,55.751268611,37.618451668,156.055,2.08,14,1,0.099496,0.059633,9.851767,0.779278,0.348038,1.157304,1.660995,1.336811,31.634347
1500,55.751270366,37.618453491,156.059,2.085,14,1,0.128116,0.063129,9.83471,0.666271,0.333467,1.160372,1.734846,1.369146,31.749409
1600,55.751272117,37.618455329,156.063,2.09,14,1,0.133366,0.045433,9.8696,0.599189,0.31956,1.148851,1.800201,1.398059,31.864128
1700,55.751273863,37.61845718,156.067,2.094,14,1,0.1096,0.024943,9.828781,0.563023,0.260983,1.162306,1.856738,1.423477,31.978481
1800,55.751275603,37.618459044,156.07,2.099,14,1,0.083337,0.048371,9.844142,0.411646,0.181803,1.137598,1.904181,1.445337,32.092448
1900,55.751277337,37.618460922,156.074,2.103,14,1,0.145718,0.017581,9.825651,0.37472,0.15087,1.122557,1.942297,1.463585,32.206008
2000,55.751279063,37.618462811,156.078,2.108,14,1,0.121415,0.010369,9.839743,0.201665,0.154031,1.129189,1.970899,1.478175,32.319138
2100,55.751280782,37.618464713,156.082,2.112,14,1,0.153537,0.028678,9.86375,0.101778,0.086713,1.134191,1.989849,1.489069,32.43182
2200,55.751282492,37.618466625,156.085,2.116,14,1,0.144044,-0.00536,9.857292,0.060849,0.099059,1.141068,1.999052,1.496242,32.544031
2300,55.751284192,37.618468549,156.089,2.119,14,1,0.116459,0.007347,9.81351,-0.049008,0.009845,1.175305,1.998463,1.499676,32.655752
2400,55.751285883,37.618470482,156.092,2.123,14,1,0.103592,0.01524,9.808038,-0.164445,-0.014065,1.13422,1.988086,1.49936,32.766964
2500,55.751287562,37.618472424,156.096,2.126,14,1,0.130837,0.004997,9.817964,-0.235809,-0.043831,1.118861,1.967972,1.495298,32.877646
2600,55.75128923,37.618474376,156.099,2.129,14,1,0.094272,0.017864,9.842904,-0.32429,-0.058411,1.11681,1.938218,1.487497,32.98778
2700,55.751290886,37.618476335,156.103,2.132,14,1,0.104064,0.028357,9.846802,-0.448214,-0.130326,1.137248,1.898971,1.475979,33.097346
2800,55.751292529,37.618478302,156.106,2.135,14,1,0.095899,-0.000928,9.866569,-0.546618,-0.222199,1.095799,1.850423,1.460771,33.206327
2900,55.751294159,37.618480275,156.11,2.138,14,1,0.091314,-0.022592,9.860744,-0.602301,-0.236542,1.096234,1.792811,1.441913,33.314703
3000,55.751295774,37.618482255,156.113,2.14,14,1,0.078114,-0.040422,9.852991,-0.708141,-0.264826,1.090072,1.726419,1.41945,33.422458
3100,55.751297375,37.618484239,156.116,2.142,14,1,0.081046,-0.031478,9.852488,-0.759127,-0.299016,1.079335,1.65157,1.39344,33.529574
3200,55.751298961,37.618486228,156.119,2.144,14,1,0.065964,0.006618,9.807725,-0.847648,-0.321297,1.058259,1.568632,1.363946,33.636034
3300,55.75130053,37.618488221,156.123,2.145,14,1,0.086223,-0.031959,9.890217,-0.956444,-0.335289,1.039733,1.478011,1.331044,33.741822
3400,55.751302084,37.618490217,156.126,2.147,14,1,0.038745,-0.035237,9.840113,-1.007158,-0.441785,1.107568,1.38015,1.294814,33.846921
3500,55.751303621,37.618492215,156.129,2.148,14,1,0.037694,-0.014244,9.825926,-1.069548,-0.31557,1.014282,1.275529,1.255348,33.951315
3600,55.75130514,37.618494214,156.132,2.149,14,1,0.008605,-0.052654,9.855758,-1.117333,-0.402665,1.025393,1.164661,1.212745,34.05499
3700,55.751306642,37.618496214,156.135,2.149,14,1,-0.002362,-0.05489,9.87129,-1.178397,-0.529838,1.024636,1.048089,1.16711,34.157931
3800,55.751308126,37.618498214,156.138,2.15,14,1,0.033143,-0.0202,9.857832,-1.231483,-0.536913,0.992834,0.926383,1.118558,34.260123
3900,55.751309592,37.618500213,156.141,2.15,14,1,0.003295,-0.048097,9.858251,-1.297425,-0.561593,0.987105,0.800139,1.06721,34.361553
4000,55.751311039,37.618502211,156.143,2.15,14,1,-0.02436,-0.04934,9.800387,-1.32911,-0.539549,1.048274,0.669976,1.013195,34.462206
4100,55.751312467,37.618504206,156.146,2.15,14,1,-0.015486,-0.047106,9.838574,-1.371015,-0.597905,1.040482,0.536532,0.956647,34.562071
4200,55.751313875,37.618506198,156.149,2.149,14,1,-0.011088,-0.057725,9.913017,-1.372619,-0.582247,0.995817,0.40046,0.897708,34.661135
4300,55.751315264,37.618508187,156.152,2.148,14,1,-0.038608,-0.03297,9.876338,-1.42988,-0.634536,0.99125,0.262426,0.836526,34.759385
4400,55.751316634,37.61851017,156.154,2.147,14,1,-0.032585,-0.090372,9.800825,-1.454536,-0.6448,0.967002,0.123107,0.773252,34.856811
4500,55.751317984,37.618512149,156.157,2.146,14,1,-0.047924,-0.083871,9.821119,-1.460642,-0.651311,0.972793,-0.016814,0.708046,34.953401
4600,55.751319314,37.618514122,156.159,2.145,14,1,-0.046637,-0.062384,9.841395,-1.355221,-0.682145,0.933358,-0.156654,0.64107,35.049146
4700,55.751320624,37.618516088,156.162,2.143,14,1,-0.077377,-0.084671,9.801438,-1.379921,-0.68573,0.933711,-0.295726,0.572491,35.144035
4800,55.751321914,37.618518047,156.164,2.141,14,1,-0.087867,-0.071701,9.878573,-1.365594,-0.721896,0.918141,-0.43335,0.502482,35.238059
4900,55.751323184,37.618519999,156.166,2.139,14,1,-0.085304,-0.097351,9.841153,-1.340342,-0.663,0.955409,-0.568851,0.431217,35.331209
5000,55.751324435,37.618521941,156.168,2.136,15,1,-0.075306,-0.089894,9.85642,-1.345221,-0.71886,0.930808,-0.701566,0.358874,35.423477
5100,55.751325665,37.618523876,156.17,2.134,15,1,-0.10829,-0.049743,9.853675,-1.330562,-0.719691,0.897091,-0.830845,0.285634,35.514855
5200,55.751326876,37.6185258,156.172,2.131,15,1,-0.102132,-0.072995,9.849386,-1.290858,-0.777244,0.923491,-0.956054,0.21168,35.605337
5300,55.751328068,37.618527715,156.174,2.128,15,1,-0.08734,-0.051394,9.876831,-1.241529,-0.723772,0.83376,-1.076581,0.137197,35.694916
5400,55.75132924,37.618529619,156.176,2.125,15,1,-0.086676,-0.075813,9.817082,-1.063967,-0.730032,0.825393,-1.191834,0.062371,35.783585
5500,55.751330393,37.618531513,156.178,2.121,15,1,-0.10979,-0.089965,9.841216,-1.077115,-0.708769,0.830257,-1.30125,-0.012611,35.87134
5600,55.751331528,37.618533395,156.18,2.118,15,1,-0.112013,-0.050887,9.821483,-0.990526,-0.742661,0.843047,-1.404293,-0.087561,35.958175
5700,55.751332644,37.618535266,156.182,2.114,15,1,-0.108891,-0.075464,9.81813,-0.87279,-0.721849,0.849467,-1.500457,-0.162293,36.044086
5800,55.751333743,37.618537125,156.183,2.11,15,1,-0.129236,-0.087228,9.860558,-0.854315,-0.726827,0.839655,-1.589271,-0.236619,36.129069
5900,55.751334823,37.618538971,156.185,2.106,15,1,-0.11075,-0.075474,9.850104,-0.775525,-0.708884,0.85604,-1.670302,-0.310353,36.213123
6000,55.751335887,37.618540806,156.186,2.101,15,1,-0.121289,-0.084637,9.814866,-0.708587,-0.754633,0.8525,-1.743152,-0.383312,36.296242
6100,55.751336934,37.618542628,156.188,2.097,15,1,-0.119017,-0.045937,9.878054,-0.598613,-0.761054,0.805724,-1.807463,-0.455312,36.378427
6200,55.751337964,37.618544437,156.189,2.092,15,1,-0.11747,-0.089313,9.826215,-0.50077,-0.716125,0.784745,-1.862922,-0.526175,36.459676
6300,55.751338979,37.618546234,156.19,2.087,15,1,-0.124999,-0.037443,9.82675,-0.44182,-0.699503,0.827054,-1.909256,-0.595722,36.539987
6400,55.751339979,37.618548017,156.192,2.082,15,1,-0.120439,-0.054042,9.843182,-0.299951,-0.630578,0.772536,-1.946238,-0.663781,36.61936
6500,55.751340965,37.618549788,156.193,2.077,15,1,-0.089024,-0.069967,9.819339,-0.190464,-0.630469,0.779747,-1.973688,-0.73018,36.697797
6600,55.751341937,37.618551546,156.194,2.072,15,1,-0.119054,-0.046246,9.813275,-0.156877,-0.655519,0.777724,-1.99147,-0.794754,36.775298
6700,55.751342895,37.618553292,156.195,2.067,15,1,-0.127519,-0.045659,9.827943,-0.048878,-0.584312,0.779338,-1.999499,-0.857342,36.851864
6800,55.751343841,37.618555024,156.196,2.061,15,1,-0.098706,-0.057336,9.836922,0.021148,-0.603204,0.732752,-1.997734,-0.917787,36.927497
6900,55.751344776,37.618556745,156.196,2.056,15,1,-0.081899,-0.040164,9.822282,0.198322,-0.562707,0.732953,-1.986184,-0.975938,37.002201
7000,55.751345699,37.618558453,156.197,2.05,15,1,-0.093915,-0.028393,9.830612,0.304642,-0.566873,0.73395,-1.964905,-1.031649,37.075979
7100,55.751346612,37.61856015,156.198,2.045,15,1,-0.068953,-0.036283,9.818739,0.305243,-0.493239,0.743551,-1.934003,-1.084782,37.148834
7200,55.751347516,37.618561835,156.198,2.039,15,1,-0.043,0.003152,9.810615,0.449411,-0.489939,0.773065,-1.893628,-1.135204,37.220771
7300,55.751348411,37.618563509,156.199,2.033,15,1,-0.077427,-0.018818,9.786025,0.464656,-0.521877,0.664244,-1.843977,-1.182788,37.291796
7400,55.751349299,37.618565173,156.199,2.027,15,1,-0.026595,-0.034548,9.809325,0.596152,-0.412789,0.663595,-1.785295,-1.227416,37.361913
7500,55.751350179,37.618566826,156.199,2.021,15,1,-0.013765,-0.03176,9.796998,0.720602,-0.399165,0.730416,-1.717869,-1.268976,37.431129
7600,55.751351053,37.618568469,156.2,2.015,15,1,-0.022409,-0.030262,9.7995,0.782087,-0.345944,0.69028,-1.642028,-1.307364,37.49945
7700,55.751351922,37.618570104,156.2,2.009,15,1,-0.016536,0.005664,9.798542,0.87362,-0.329143,0.715779,-1.558145,-1.342484,37.566884
7800,55.751352787,37.61857173,156.2,2.003,15,1,-0.006659,-0.007853,9.786597,0.972426,-0.318229,0.671493,-1.46663,-1.374249,37.63344
7900,55.751353648,37.618573348,156.2,1.997,15,1,-0.024107,0.017856,9.779275,0.997999,-0.234124,0.612483,-1.367932,-1.402579,37.699124
8000,55.751354506,37.61857496,156.2,1.991,15,1,0.012794,0.008114,9.784344,1.12608,-0.185536,0.584796,-1.262533,-1.427403,37.763946
8100,55.751355363,37.618576565,156.2,1.985,15,1,0.001731,0.02389,9.77666,1.133288,-0.190655,0.656225,-1.150951,-1.44866,37.827916
8200,55.75135622,37.618578164,156.2,1.979,15,1,0.029446,0.017918,9.785597,1.237264,-0.172956,0.63729,-1.033731,-1.466295,37.891044
8300,55.751357076,37.618579759,156.199,1.973,15,1,0.03424,0.022749,9.796188,1.241296,-0.151671,0.642726,-0.911448,-1.480266,37.953339
8400,55.751357934,37.61858135,156.199,1.967,15,1,0.071977,0.02939,9.81263,1.312884,-0.056275,0.619783,-0.7847,-1.490537,38.014814
8500,55.751358793,37.618582938,156.198,1.962,15,1,0.062477,0.043198,9.797805,1.29379,-0.046046,0.545998,-0.65411,-1.497082,38.07548
8600,55.751359656,37.618584524,156.198,1.956,15,1,0.067353,0.040826,9.81961,1.356331,0.018553,0.594725,-0.520315,-1.499885,38.135348
8700,55.751360522,37.61858611,156.197,1.95,15,1,0.059805,0.017717,9.773976,1.332972,0.047213,0.580731,-0.383972,-1.498939,38.194432
8800,55.751361393,37.618587695,156.196,1.945,15,1,0.090948,0.044111,9.812753,1.421197,0.046264,0.571083,-0.245748,-1.494247,38.252745
8900,55.75136227,37.618589282,156.196,1.939,15,1,0.081109,0.022657,9.803902,1.433684,0.10269,0.557006,-0.10632,-1.48582,38.310299
9000,55.751363154,37.618590871,156.195,1.934,15,1,0.111604,0.015601,9.792499,1.404101,0.122759,0.606182,0.033628,-1.473679,38.36711
9100,55.751364045,37.618592463,156.194,1.928,15,1,0.115331,0.050474,9.785795,1.383087,0.161172,0.517969,0.173411,-1.457855,38.423191
9200,55.751364944,37.618594059,156.193,1.923,15,1,0.126353,0.073231,9.802103,1.349992,0.275172,0.609551,0.312346,-1.438386,38.478558
9300,55.751365852,37.618595662,156.192,1.918,15,1,0.112684,0.04746,9.767454,1.376699,0.221035,0.542208,0.44975,-1.415323,38.533226
9400,55.751366771,37.618597271,156.191,1.913,15,1,0.129699,0.041413,9.823575,1.385783,0.246371,0.494073,0.584951,-1.388722,38.58721
9500,55.7513677,37.618598887,156.189,1.908,15,1,0.111899,0.05131,9.776901,1.229429,0.310972,0.583981,0.717288,-1.35865,38.640528
9600,55.751368641,37.618600514,156.188,1.904,15,1,0.101439,0.065203,9.751138,1.287692,0.344628,0.581699,0.846111,-1.325182,38.693195
9700,55.751369594,37.61860215,156.187,1.899,15,1,0.122573,0.065988,9.790731,1.208826,0.343885,0.52629,0.97079,-1.288402,38.745229
9800,55.751370561,37.618603798,156.185,1.895,15,1,0.117365,0.07608,9.786073,1.158176,0.428428,0.563294,1.090714,-1.248401,38.796647
9900,55.751371541,37.618605459,156.183,1.89,15,1,0.103122,0.101396,9.772592,1.094212,0.519275,0.509926,1.205295,-1.20528,38.847467
10000,55.751372537,37.618607135,156.182,1.886,16,1,0.139279,0.089078,9.742766,1.059088,0.46026,0.459317,1.313973,-1.159147,38.897708
10100,55.751373547,37.618608825,156.18,1.883,16,1,0.090372,0.07955,9.787162,1.000266,0.495216,0.470099,1.416215,-1.110116,38.947388
10200,55.751374573,37.618610532,156.178,1.879,16,1,0.099622,0.07061,9.753724,0.910689,0.530816,0.46185,1.511521,-1.05831,38.996526
10300,55.751375616,37.618612257,156.177,1.876,16,1,0.107689,0.06817,9.773376,0.855751,0.562629,0.497764,1.599423,-1.00386,39.04514
10400,55.751376677,37.618614001,156.175,1.872,16,1,0.082424,0.074245,9.778134,0.779407,0.533734,0.483442,1.679491,-0.9469,39.093252
10500,55.751377755,37.618615766,156.173,1.869,16,1,0.120648,0.07731,9.769892,0.689596,0.612024,0.494174,1.751333,-0.887573,39.14088
10600,55.751378851,37.618617552,156.171,1.866,16,1,0.09833,0.082052,9.755382,0.583568,0.663628,0.463282,1.814597,-0.826028,39.188046
10700,55.751379966,37.61861936,156.168,1.864,16,1,0.088786,0.07188,9.786075,0.472757,0.673209,0.436976,1.868974,-0.762419,39.234769
10800,55.7513811,37.618621193,156.166,1.861,16,1,0.068933,0.081545,9.772294,0.414598,0.696016,0.448598,1.914195,-0.696903,39.28107
10900,55.751382254,37.61862305,156.164,1.859,16,1,0.084389,0.063729,9.794291,0.329933,0.696821,0.462709,1.950042,-0.629646,39.32697
11000,55.751383428,37.618624934,156.162,1.857,16,1,0.058406,0.071108,9.778622,0.214148,0.699321,0.412592,1.976336,-0.560815,39.372491
11100,55.751384623,37.618626846,156.159,1.856,16,1,0.064904,0.064008,9.746458,0.112796,0.653059,0.470874,1.992951,-0.490582,39.417655
11200,55.751385838,37.618628786,156.157,1.854,16,1,0.066567,0.071687,9.74785,-0.008787,0.715594,0.373955,1.999805,-0.419123,39.462482
11300,55.751387074,37.618630755,156.154,1.853,16,1,0.04775,0.080295,9.76115,-0.093217,0.73516,0.454156,1.996863,-0.346617,39.506996
11400,55.751388331,37.618632755,156.152,1.852,16,1,0.052422,0.068191,9.753318,-0.189797,0.74291,0.487516,1.98414,-0.273244,39.551217
11500,55.75138961,37.618634787,156.149,1.851,16,1,0.021943,0.04947,9.7495,-0.335562,0.753252,0.397407,1.9617,-0.199188,39.595169
11600,55.75139091,37.618636851,156.146,1.85,16,1,-0.00119,0.032726,9.744395,-0.350996,0.708066,0.383401,1.929651,-0.124634,39.638874
11700,55.751392232,37.618638949,156.144,1.85,16,1,0.010442,0.054131,9.775315,-0.439406,0.749332,0.394829,1.88815,-0.049769,39.682355
11800,55.751393576,37.618641081,156.141,1.85,16,1,-0.003684,0.063423,9.754991,-0.59606,0.782972,0.419404,1.837401,0.025221,39.725634
11900,55.751394941,37.618643249,156.138,1.85,16,1,-0.017548,0.052627,9.787305,-0.633633,0.73833,0.450656,1.777653,0.100147,39.768735
12000,55.751396328,37.618645452,156.135,1.851,16,1,0.011286,0.069485,9.780261,-0.760673,0.85745,0.392793,1.709198,0.174824,39.81168
12100,55.751397737,37.618647693,156.132,1.851,16,1,-0.035872,0.034275,9.799513,-0.796299,0.696775,0.435574,1.632371,0.249063,39.854493
12200,55.751399167,37.618649971,156.129,1.852,16,1,-0.031274,0.03594,9.742807,-0.908597,0.719335,0.427254,1.547549,0.32268,39.897197
12300,55.751400619,37.618652288,156.126,1.853,16,1,-0.056206,0.047543,9.74851,-1.012384,0.70128,0.466298,1.455147,0.39549,39.939815
12400,55.751402092,37.618654643,156.123,1.855,16,1,-0.065625,0.067293,9.7777,-1.064267,0.687646,0.432625,1.355617,0.467312,39.982371
12500,55.751403586,37.618657038,156.12,1.856,16,1,-0.082947,0.06335,9.748475,-1.072756,0.74391,0.421776,1.249448,0.537966,40.024888
12600,55.7514051,37.618659472,156.116,1.858,16,1,-0.088058,0.019085,9.776022,-1.125407,0.687489,0.383007,1.137159,0.607275,40.067389
12700,55.751406635,37.618661948,156.113,1.86,16,1,-0.079855,0.008448,9.725658,-1.225461,0.626781,0.442815,1.0193,0.675066,40.109898
12800,55.75140819,37.618664464,156.11,1.862,16,1,-0.058183,0.04173,9.758463,-1.265511,0.672712,0.457478,0.896449,0.74117,40.152439
12900,55.751409764,37.618667021,156.107,1.865,16,1,-0.099923,0.006959,9.814729,-1.295538,0.618152,0.429901,0.769206,0.805421,40.195034
13000,55.751411358,37.618669619,156.103,1.867,16,1,-0.090644,-0.011008,9.766344,-1.361801,0.603446,0.483509,0.638197,0.86766,40.237707
13100,55.75141297,37.618672259,156.1,1.87,16,1,-0.093275,-0.00187,9.753427,-1.364149,0.620869,0.411481,0.504061,0.927729,40.280482
13200,55.7514146,37.618674941,156.096,1.874,16,1,-0.087039,-0.025882,9.767122,-1.323885,0.505192,0.465347,0.367457,0.98548,40.323381
13300,55.751416248,37.618677665,156.093,1.877,16,1,-0.140264,-0.011406,9.770359,-1.36606,0.445457,0.373755,0.229052,1.040767,40.366429
13400,55.751417913,37.618680431,156.089,1.88,16,1,-0.123963,-0.014242,9.756885,-1.405223,0.477825,0.421076,0.089526,1.093454,40.409647
13500,55.751419594,37.618683238,156.085,1.884,16,1,-0.130414,-0.015823,9.787368,-1.356567,0.465751,0.425629,-0.050439,1.143407,40.453059
13600,55.75142129,37.618686088,156.082,1.888,16,1,-0.118483,-0.028525,9.77574,-1.440523,0.467416,0.409995,-0.190156,1.190502,40.496688
13700,55.751423002,37.618688978,156.078,1.892,16,1,-0.134278,-0.052454,9.801087,-1.385153,0.460428,0.448128,-0.328943,1.234621,40.540557
13800,55.751424727,37.618691911,156.074,1.896,16,1,-0.145432,-0.049315,9.79416,-1.384418,0.361848,0.437312,-0.466118,1.275655,40.584688
13900,55.751426466,37.618694884,156.071,1.901,16,1,-0.121727,-0.052547,9.773656,-1.349647,0.284487,0.46073,-0.60101,1.3135,40.629103
14000,55.751428217,37.618697898,156.067,1.905,16,1,-0.129672,-0.021977,9.758397,-1.349985,0.364539,0.401277,-0.732958,1.348062,40.673825
14100,55.75142998,37.618700952,156.063,1.91,16,1,-0.124721,-0.036608,9.776067,-1.313185,0.300453,0.446397,-0.861317,1.379255,40.718876
14200,55.751431754,37.618704045,156.059,1.915,16,1,-0.092862,-0.040599,9.844674,-1.267633,0.259326,0.423842,-0.985456,1.407,40.764278
14300,55.751433537,37.618707178,156.056,1.92,16,1,-0.091022,-0.040784,9.800375,-1.190345,0.202137,0.398782,-1.104769,1.431228,40.810052
14400,55.751435329,37.618710349,156.052,1.925,16,1,-0.078231,-0.04898,9.781447,-1.082072,0.210972,0.492974,-1.218671,1.45188,40.856219
14500,55.75143713,37.618713559,156.048,1.93,16,1,-0.123092,-0.070599,9.791975,-1.03703,0.180645,0.43771,-1.326603,1.468902,40.902802
14600,55.751438937,37.618716805,156.044,1.936,16,1,-0.091066,-0.029884,9.803336,-0.95406,0.114455,0.495458,-1.428038,1.482252,40.94982
14700,55.75144075,37.618720087,156.04,1.941,16,1,-0.059554,-0.064211,9.815436,-0.934114,0.095549,0.504222,-1.522479,1.491898,40.997295
14800,55.751442568,37.618723405,156.036,1.947,16,1,-0.090979,-0.051948,9.778935,-0.855253,0.040431,0.539922,-1.609462,1.497815,41.045246
14900,55.75144439,37.618726757,156.032,1.952,16,1,-0.067638,-0.056746,9.779311,-0.747936,-0.03231,0.469895,-1.688562,1.499988,41.093694
15000,55.751446214,37.618730142,156.028,1.958,14,1,-0.051854,-0.073466,9.824499,-0.671824,-0.04044,0.530591,-1.759392,1.498412,41.142658
15100,55.75144804,37.61873356,156.024,1.964,14,1,-0.06582,-0.097533,9.823044,-0.565556,-0.136859,0.49908,-1.821604,1.493091,41.192158
15200,55.751449867,37.618737009,156.02,1.97,14,1,-0.05349,-0.05014,9.783999,-0.504803,-0.136437,0.471765,-1.874893,1.484037,41.242213
15300,55.751451693,37.618740488,156.016,1.976,14,1,-0.04898,-0.099154,9.779528,-0.442589,-0.190992,0.462425,-1.919,1.471275,41.292842
15400,55.751453517,37.618743995,156.012,1.982,14,1,-0.037084,-0.088893,9.777206,-0.285124,-0.1841,0.502266,-1.953707,1.454835,41.344062
15500,55.751455339,37.61874753,156.008,1.988,14,1,-0.026832,-0.055485,9.808123,-0.188824,-0.296367,0.501801,-1.978846,1.434758,41.395893
15600,55.751457156,37.618751091,156.004,1.994,14,1,-0.042917,-0.086225,9.812389,-0.125932,-0.238808,0.497093,-1.994291,1.411096,41.448351
15700,55.751458969,37.618754677,156.0,2.0,14,1,0.007873,-0.103303,9.801289,0.00479,-0.273233,0.53049,-1.999969,1.383906,41.501454
15800,55.751460775,37.618758286,155.996,2.006,14,1,0.037923,-0.086094,9.799102,0.007348,-0.270465,0.529936,-1.995851,1.353258,41.555218
15900,55.751462573,37.618761917,155.992,2.012,14,1,0.000723,-0.059656,9.83443,0.190879,-0.399993,0.560435,-1.981957,1.319227,41.60966
16000,55.751464363,37.618765568,155.988,2.017,14,1,0.01846,-0.096337,9.832179,0.220229,-0.372452,0.568664,-1.958355,1.281898,41.664796
16100,55.751466143,37.618769237,155.984,2.023,14,1,0.067787,-0.072919,9.771728,0.354308,-0.419074,0.572721,-1.925162,1.241366,41.720642
16200,55.751467912,37.618772924,155.98,2.029,14,1,0.060737,-0.105934,9.807873,0.501814,-0.40519,0.625205,-1.882539,1.197731,41.777212
16300,55.751469669,37.618776626,155.976,2.035,14,1,0.048881,-0.058541,9.850269,0.599672,-0.459165,0.601672,-1.830695,1.151102,41.834522
16400,55.751471413,37.618780341,155.972,2.041,14,1,0.051245,-0.094911,9.837239,0.641568,-0.509884,0.567079,-1.769885,1.101596,41.892584
16500,55.751473143,37.618784069,155.968,2.047,14,1,0.065155,-0.067644,9.798674,0.739092,-0.528551,0.589858,-1.700406,1.049336,41.951414
16600,55.751474856,37.618787807,155.965,2.052,14,1,0.067395,-0.057013,9.858074,0.800447,-0.524451,0.626725,-1.622598,0.994454,42.011024
16700,55.751476554,37.618791553,155.961,2.058,14,1,0.04575,-0.07766,9.809392,0.919375,-0.57998,0.622271,-1.536843,0.937086,42.071428
16800,55.751478233,37.618795306,155.957,2.063,14,1,0.101544,-0.076917,9.808641,0.932285,-0.613428,0.612579,-1.44356,0.877376,42.132636
16900,55.751479894,37.618799064,155.953,2.069,14,1,0.100431,-0.071305,9.843139,1.064789,-0.583089,0.645719,-1.343207,0.815473,42.194662
17000,55.751481535,37.618802825,155.949,2.074,14,1,0.105882,-0.047055,9.83861,1.080944,-0.610395,0.684273,-1.236274,0.751531,42.257516
17100,55.751483155,37.618806587,155.945,2.079,14,1,0.137331,-0.053153,9.834275,1.170822,-0.667122,0.659738,-1.123287,0.685711,42.321209
17200,55.751484753,37.618810348,155.941,2.084,14,1,0.109748,-0.052934,9.86431,1.215432,-0.681337,0.676161,-1.004797,0.618178,42.385751
17300,55.751486328,37.618814107,155.937,2.089,14,1,0.116995,-0.04182,9.829164,1.220108,-0.698871,0.624229,-0.881386,0.549099,42.451152
17400,55.751487879,37.618817861,155.934,2.094,14,1,0.120334,-0.059916,9.850037,1.319273,-0.702378,0.664055,-0.753658,0.478648,42.517421
17500,55.751489406,37.618821609,155.93,2.099,14,1,0.125117,-0.067518,9.810993,1.326057,-0.711506,0.673484,-0.622239,0.407,42.584567
17600,55.751490906,37.618825349,155.926,2.103,14,1,0.104735,-0.031753,9.82504,1.325668,-0.721248,0.678451,-0.487772,0.334335,42.652597
17700,55.751492381,37.618829078,155.922,2.107,14,1,0.137916,-0.019362,9.849949,1.387932,-0.763929,0.665638,-0.350915,0.260834,42.721519
17800,55.751493827,37.618832796,155.919,2.111,14,1,0.097299,0.018356,9.814762,1.385792,-0.754981,0.694296,-0.21234,0.186682,42.79134
17900,55.751495246,37.6188365,155.915,2.115,14,1,0.109239,-0.048249,9.817434,1.357354,-0.751707,0.691287,-0.072725,0.112062,42.862067
18000,55.751496635,37.618840188,155.911,2.119,14,1,0.105571,-0.012308,9.826741,1.427171,-0.761355,0.727706,0.067246,0.037163,42.933705
18100,55.751497995,37.618843858,155.908,2.123,14,1,0.093137,-0.00096,9.831241,1.404752,-0.739861,0.724936,0.206888,-0.037829,43.006259
18200,55.751499324,37.618847509,155.904,2.126,14,1,0.112693,-0.01182,9.867162,1.406979,-0.733404,0.703967,0.345517,-0.112727,43.079734
18300,55.751500622,37.61885114,155.901,2.129,14,1,0.088657,-0.011204,9.836181,1.372097,-0.771024,0.783953,0.482453,-0.187343,43.154135
18400,55.751501888,37.618854747,155.897,2.132,14,1,0.100243,-0.026639,9.832362,1.254153,-0.761068,0.741469,0.617026,-0.26149,43.229463
18500,55.751503122,37.61885833,155.894,2.135,14,1,0.085434,0.00346,9.834716,1.280425,-0.685984,0.803718,0.748577,-0.334984,43.305724
18600,55.751504323,37.618861886,155.891,2.137,14,1,0.071259,0.031903,9.810844,1.233969,-0.676018,0.709433,0.876461,-0.407641,43.382918
18700,55.751505491,37.618865415,155.887,2.14,14,1,0.090239,-0.000999,9.841005,1.207008,-0.659769,0.761664,1.000053,-0.479279,43.461048
18800,55.751506624,37.618868913,155.884,2.142,14,1,0.073291,0.031854,9.839404,1.13582,-0.699596,0.79816,1.118746,-0.549719,43.540115
18900,55.751507724,37.618872381,155.881,2.144,14,1,0.079821,0.012867,9.835951,1.112555,-0.688225,0.799171,1.23196,-0.618785,43.620119
19000,55.751508789,37.618875816,155.878,2.145,14,1,0.058113,0.021042,9.829373,1.053071,-0.699746,0.849062,1.33914,-0.686304,43.701061
19100,55.751509819,37.618879217,155.874,2.147,14,1,0.053062,0.016685,9.851398,0.976756,-0.626045,0.858229,1.43976,-0.752108,43.782939
19200,55.751510813,37.618882582,155.871,2.148,14,1,0.035422,0.029441,9.833927,0.869435,-0.651697,0.841347,1.533328,-0.816032,43.865753
19300,55.751511772,37.618885911,155.868,2.149,14,1,0.032001,0.036767,9.831526,0.832031,-0.623173,0.810935,1.619387,-0.877916,43.949501
19400,55.751512696,37.618889201,155.865,2.149,14,1,0.020148,0.044092,9.825073,0.765113,-0.560046,0.852668,1.697513,-0.937606,44.03418
19500,55.751513584,37.618892451,155.862,2.15,14,1,0.014896,0.059717,9.845973,0.682113,-0.511584,0.863126,1.767325,-0.994952,44.119788
19600,55.751514436,37.618895661,155.86,2.15,14,1,0.009959,0.068472,9.839885,0.533392,-0.508519,0.822879,1.828481,-1.049812,44.206321
19700,55.751515252,37.618898829,155.857,2.15,14,1,0.020591,0.071789,9.85039,0.477862,-0.456255,0.850743,1.880681,-1.102048,44.293775
19800,55.751516032,37.618901954,155.854,2.15,14,1,-0.033201,0.052912,9.841327,0.35289,-0.476004,0.892346,1.923669,-1.151529,44.382145
19900,55.751516777,37.618905035,155.851,2.149,14,1,-0.037462,0.088859,9.818584,0.249662,-0.439959,0.891127,1.957235,-1.198132,44.471427
20000,55.751517485,37.618908072,155.849,2.148,15,1,-0.028282,0.058224,9.825558,0.172066,-0.441246,0.922123,1.981215,-1.24174,44.561614
20100,55.751518159,37.618911063,155.846,2.147,15,1,-0.050821,0.081382,9.857721,0.125181,-0.36216,0.93886,1.99549,-1.282244,44.652699
20200,55.751518797,37.618914007,155.844,2.146,15,1,-0.040868,0.064411,9.840395,-0.05887,-0.3479,0.904,1.999992,-1.319544,44.744677
20300,55.7515194,37.618916905,155.841,2.145,15,1,-0.054852,0.082015,9.818201,-0.132291,-0.333713,0.917491,1.994698,-1.353545,44.837539
20400,55.751519968,37.618919755,155.839,2.143,15,1,-0.066439,0.058446,9.845735,-0.249942,-0.353657,0.963242,1.979633,-1.384163,44.931278
20500,55.751520502,37.618922557,155.836,2.141,15,1,-0.096153,0.06878,9.815932,-0.337988,-0.266018,0.938072,1.954873,-1.411322,45.025885
20600,55.751521002,37.61892531,155.834,2.139,15,1,-0.068973,0.085045,9.838484,-0.367978,-0.18497,0.971255,1.920537,-1.434953,45.12135
20700,55.751521468,37.618928015,155.832,2.137,15,1,-0.09641,0.094424,9.878445,-0.463965,-0.129215,0.995155,1.876795,-1.454997,45.217665
20800,55.751521901,37.618930671,155.83,2.134,15,1,-0.083607,0.063349,9.820114,-0.575968,-0.195831,0.957905,1.82386,-1.471404,45.314818
20900,55.751522302,37.618933277,155.828,2.131,15,1,-0.08874,0.069995,9.852301,-0.702911,-0.123605,1.014624,1.761992,-1.484134,45.4128
21000,55.751522671,37.618935835,155.826,2.128,15,1,-0.10338,0.084309,9.874928,-0.708114,-0.097877,1.031569,1.691494,-1.493154,45.511598
21100,55.751523008,37.618938343,155.824,2.125,15,1,-0.119814,0.079386,9.84028,-0.795813,-0.068047,1.01358,1.61271,-1.498443,45.611202
21200,55.751523315,37.618940803,155.822,2.122,15,1,-0.106095,0.09123,9.834857,-0.874832,-0.018027,1.042302,1.526028,-1.499985,45.711599
21300,55.751523592,37.618943214,155.82,2.118,15,1,-0.111312,0.05718,9.84626,-0.972054,0.030129,0.99354,1.431871,-1.497779,45.812776
21400,55.751523839,37.618945577,155.818,2.114,15,1,-0.122094,0.055391,9.870902,-1.078992,0.058339,1.057576,1.330701,-1.491829,45.91472
21500,55.751524058,37.618947892,155.817,2.11,15,1,-0.110853,0.086392,9.86636,-1.117099,0.083965,1.05602,1.223013,-1.48215,46.017417
21600,55.75152425,37.61895016,155.815,2.106,15,1,-0.108056,0.068979,9.809605,-1.127726,0.169529,0.996806,1.109335,-1.468767,46.120853
21700,55.751524414,37.618952382,155.814,2.102,15,1,-0.107905,0.050294,9.82411,-1.25006,0.169632,1.02018,0.990223,-1.451712,46.225014
21800,55.751524553,37.618954557,155.812,2.097,15,1,-0.127643,0.080541,9.838456,-1.243002,0.257579,1.041015,0.866261,-1.431029,46.329884
21900,55.751524667,37.618956688,155.811,2.093,15,1,-0.115327,0.075267,9.86546,-1.274213,0.301735,1.089623,0.738057,-1.406769,46.435448
22000,55.751524756,37.618958775,155.81,2.088,15,1,-0.098002,0.037701,9.847664,-1.327746,0.296745,1.049934,0.606237,-1.378993,46.54169
22100,55.751524823,37.61896082,155.808,2.083,15,1,-0.116848,0.067757,9.84553,-1.405482,0.335753,1.055461,0.471448,-1.34777,46.648593
22200,55.751524867,37.618962823,155.807,2.078,15,1,-0.120633,0.064226,9.820805,-1.400069,0.339404,1.087081,0.334349,-1.313178,46.75614
22300,55.75152489,37.618964785,155.806,2.073,15,1,-0.101742,0.038575,9.809175,-1.398763,0.406996,1.053337,0.195613,-1.275304,46.864315
22400,55.751524894,37.618966709,155.805,2.067,15,1,-0.088841,0.039004,9.879134,-1.427683,0.402513,1.096657,0.055919,-1.234243,46.9731
22500,55.751524878,37.618968595,155.804,2.062,15,1,-0.103654,0.060008,9.859163,-1.410392,0.461711,1.081131,-0.084049,-1.190096,47.082477
22600,55.751524844,37.618970445,155.804,2.056,15,1,-0.083498,0.065128,9.839549,-1.418349,0.532074,1.137167,-0.223605,-1.142975,47.192427
22700,55.751524794,37.618972261,155.803,2.051,15,1,-0.069048,0.029665,9.821484,-1.400732,0.527681,1.098263,-0.362066,-1.092997,47.302931
22800,55.751524727,37.618974044,155.802,2.045,15,1,-0.102225,0.049206,9.822482,-1.323415,0.536239,1.118671,-0.498754,-1.040288,47.413972
22900,55.751524647,37.618975798,155.802,2.039,15,1,-0.043888,0.036762,9.822878,-1.231598,0.560575,1.123157,-0.632998,-0.984978,47.525528
23000,55.751524553,37.618977522,155.801,2.033,15,1,-0.026137,0.01439,9.794746,-1.336748,0.605563,1.141716,-0.764143,-0.927206,47.637581
23100,55.751524446,37.61897922,155.801,2.028,15,1,-0.032222,0.001587,9.834116,-1.217287,0.609067,1.128588,-0.891544,-0.867116,47.750111
23200,55.751524329,37.618980893,155.801,2.022,15,1,-0.024129,0.022744,9.82526,-1.239068,0.627652,1.095696,-1.014579,-0.804859,47.863097
23300,55.751524201,37.618982544,155.8,2.016,15,1,-0.015494,0.020475,9.808857,-1.144953,0.605517,1.162059,-1.132645,-0.740591,47.976518
23400,55.751524065,37.618984175,155.8,2.01,15,1,-0.022512,0.009697,9.831547,-1.118272,0.705822,1.144085,-1.245162,-0.674471,48.090354
23500,55.751523922,37.618985789,155.8,2.004,15,1,-0.005521,0.011313,9.782701,-1.014108,0.687767,1.175279,-1.351581,-0.606666,48.204583
23600,55.751523772,37.618987387,155.8,1.998,15,1,0.000401,-0.007276,9.813434,-0.965012,0.665006,1.141986,-1.45138,-0.537344,48.319185
23700,55.751523617,37.618988972,155.8,1.992,15,1,0.032241,-0.008016,9.787033,-0.868334,0.657175,1.087592,-1.54407,-0.466679,48.434137
23800,55.751523458,37.618990547,155.8,1.986,15,1,0.022653,-0.008674,9.807255,-0.838819,0.719034,1.112415,-1.629197,-0.394848,48.549418
23900,55.751523296,37.618992115,155.8,1.98,15,1,0.035353,-0.040345,9.798273,-0.722434,0.679814,1.141657,-1.706344,-0.322029,48.665005
