time_ms,lat,lon,ax,ay,az,gx,gy,gz,roll_deg,pitch_deg,yaw_deg
7136,55.590774,37.672744,2.206257,1.246182,8.989030,-0.076336,-0.015267,-0.015267,0.282425,10.763463,1.403749
7236,55.590774,37.672744,2.209848,1.240196,8.978257,-0.076336,-0.015267,-0.015267,0.276420,11.037483,1.527039
7336,55.590774,37.672744,2.196680,1.221043,8.983045,-0.061069,-0.015267,-0.015267,0.233972,11.298296,1.568280
7436,55.590774,37.672744,2.234987,1.231817,8.986637,-0.061069,-0.015267,-0.015267,0.264760,11.550244,1.695331
7536,55.590774,37.672744,2.213439,1.240196,8.966286,-0.061069,-0.015267,-0.015267,0.282127,11.768233,1.831385
7636,55.590774,37.672744,2.203863,1.231817,8.986637,-0.061069,-0.015267,-0.015267,0.264085,11.965209,1.970997
7736,55.590774,37.672744,2.212242,1.246182,8.967483,-0.061069,-0.015267,-0.015267,0.302643,12.161210,2.097695
7836,55.590774,37.672744,2.208651,1.228225,8.941146,-0.061069,-0.015267,-0.015267,0.286186,12.351957,2.245250
7936,55.590774,37.672744,2.206257,1.231817,8.957906,-0.061069,-0.015267,-0.015267,0.310719,12.513375,2.373756
8036,55.590774,37.672744,2.195483,1.248576,9.011775,-0.061069,-0.015267,-0.015267,0.336396,12.673933,2.509010
8136,55.590774,37.672744,2.223016,1.254562,8.965088,-0.061069,-0.015267,-0.015267,0.370281,12.828039,2.651134
8236,55.590774,37.672744,2.212242,1.235408,8.983045,-0.061069,-0.015267,-0.015267,0.354328,12.969380,2.799029
8336,55.590774,37.672744,2.219425,1.238999,8.968680,-0.076336,-0.015267,-0.015267,0.366876,13.096143,2.943868
8436,55.590774,37.672744,2.203863,1.244985,8.923191,-0.076336,-0.015267,-0.015267,0.364856,13.201622,3.089923
8536,55.590774,37.672744,2.208651,1.237802,8.957906,-0.061069,-0.015267,-0.015267,0.370239,13.306903,3.235257
8636,55.590774,37.672744,2.224213,1.242591,8.989030,-0.076336,-0.015267,-0.015267,0.377831,13.419835,3.395574
8736,55.590774,37.672744,2.214637,1.246182,8.968680,-0.076336,-0.015267,-0.015267,0.383111,13.504257,3.541117
8836,55.590774,37.672744,2.214637,1.233014,8.971075,-0.061069,-0.015267,-0.015267,0.375175,13.589066,3.695572
9036,55.590770,37.672744,2.213439,1.248576,8.967483,-0.076336,-0.015267,-0.015267,0.390018,13.750720,4.015602
9136,55.590770,37.672744,2.217031,1.241394,8.973468,-0.061069,-0.015267,-0.015267,0.401681,13.814079,4.153474
9236,55.590770,37.672744,2.217031,1.244985,8.953118,-0.076336,-0.015267,-0.015267,0.400946,13.877822,4.307400
9336,55.590770,37.672744,2.211045,1.242591,8.963891,-0.076336,-0.015267,-0.015267,0.408063,13.933456,4.466809
9436,55.590770,37.672744,2.219425,1.247379,8.987833,-0.076336,-0.015267,-0.015267,0.407374,13.990254,4.620844
9536,55.590770,37.672744,2.231396,1.242591,8.972271,-0.061069,-0.015267,-0.015267,0.406538,14.040122,4.774937
9636,55.590770,37.672744,2.220622,1.241394,8.977060,-0.061069,-0.015267,-0.015267,0.412986,14.089691,4.928216
9736,55.590770,37.672744,2.225410,1.238999,8.978257,-0.076336,-0.015267,-0.015267,0.413238,14.138634,5.088601
9836,55.590770,37.672744,2.221819,1.241394,8.984242,-0.061069,-0.015267,-0.015267,0.419956,14.188179,5.241966
9936,55.590770,37.672744,2.225410,1.242591,8.981848,-0.061069,-0.015267,-0.015267,0.427027,14.223776,5.402475
10036,55.590770,37.672744,2.221819,1.236605,8.979454,-0.061069,-0.015267,-0.015267,0.426500,14.266692,5.556814
10136,55.590770,37.672744,2.217031,1.241394,8.968680,-0.061069,-0.015267,-0.015267,0.426741,14.287810,5.724309
10236,55.590770,37.672744,2.217031,1.255759,8.959103,-0.061069,-0.015267,-0.015267,0.460024,14.322166,5.860004
10336,55.590770,37.672744,2.217031,1.249773,8.993819,-0.076336,-0.015267,-0.015267,0.445199,14.344038,6.022156
10436,55.590770,37.672744,2.209848,1.238999,8.971075,-0.061069,-0.015267,-0.015267,0.437663,14.366444,6.184556
10536,55.590770,37.672744,2.226608,1.252167,8.975863,-0.076336,-0.015267,-0.015267,0.437264,14.387614,6.344898
10636,55.590770,37.672744,2.219425,1.249773,8.987833,-0.061069,-0.015267,-0.015267,0.444155,14.409269,6.505538
10736,55.590770,37.672744,2.230199,1.248576,8.965088,-0.061069,-0.015267,-0.015267,0.444370,14.438231,6.667123
10836,55.590770,37.672744,2.234987,1.247379,8.972271,-0.076336,-0.015267,-0.015267,0.451737,14.465911,6.826550
10940,55.590770,37.672744,2.221819,1.250970,8.977060,-0.061069,-0.015267,-0.015267,0.453495,14.487778,7.002323
11081,55.590770,37.672744,2.217031,1.238999,8.997410,-0.076336,-0.015267,-0.015267,0.454080,14.502576,7.228641
11181,55.590770,37.672744,2.218228,1.250970,8.980651,-0.061069,-0.015267,-0.015267,0.453694,14.517678,7.390192
11281,55.590770,37.672744,2.217031,1.244985,8.966286,-0.061069,-0.015267,-0.015267,0.453349,14.532781,7.551754
11381,55.590770,37.672744,2.223016,1.248576,8.984242,-0.076336,-0.015267,-0.015267,0.452959,14.547003,7.711867
11481,55.590770,37.672744,2.214637,1.248576,8.979454,-0.076336,-0.015267,-0.015267,0.452698,14.562109,7.873407
11581,55.590770,37.672744,2.221819,1.242591,8.971075,-0.076336,-0.015267,-0.015267,0.451983,14.570296,8.034914
11681,55.590770,37.672744,2.225410,1.215057,8.991425,-0.076336,0.000000,-0.015267,0.364688,14.548702,8.219567
11781,55.590770,37.672744,2.211045,1.235408,8.968680,-0.076336,-0.015267,-0.015267,0.339468,14.530023,8.374865
11881,55.590770,37.672744,2.189497,1.203086,8.956709,-0.061069,-0.015267,0.000000,0.274688,14.505923,8.337798
11981,55.590770,37.672744,2.136825,1.241394,8.929176,-0.061069,-0.015267,0.000000,0.241934,14.506825,8.137560
12081,55.590770,37.672744,2.189497,1.228225,8.977060,-0.061069,-0.015267,0.000000,0.240439,14.507610,8.239904
12181,55.590770,37.672744,2.294842,1.191115,9.012972,-0.061069,-0.015267,0.061069,0.183002,14.524740,8.123538
12281,55.590770,37.672744,2.243367,1.185130,8.960300,-0.061069,-0.015267,0.122137,-0.039733,14.503544,7.187602
12381,55.590770,37.672744,2.087744,1.163582,8.971075,-0.076336,-0.015267,0.045802,-0.389390,14.455445,5.947292
12481,55.590770,37.672744,2.280477,1.119289,9.005790,-0.076336,-0.015267,0.061069,-0.573380,14.451077,5.416064
12581,55.590770,37.672744,2.300828,1.094150,9.004593,-0.076336,-0.015267,0.030534,-0.675886,14.453173,5.181698
12681,55.590770,37.672744,2.274492,1.071405,8.980651,-0.061069,-0.015267,0.015267,-0.769646,14.468801,5.011584
12781,55.590770,37.672744,2.273294,1.065420,8.978257,-0.061069,-0.015267,0.000000,-0.796246,14.498531,5.023566
12881,55.590770,37.672744,2.246958,1.059434,8.995017,-0.061069,-0.015267,0.000000,-0.866533,14.519996,4.865119
13181,55.590770,37.672744,2.413355,1.043872,8.991425,-0.076336,-0.015267,0.106870,-0.960491,14.665040,4.889431
13281,55.590770,37.672744,2.287660,1.037886,9.003396,-0.076336,-0.015267,-0.015267,-0.977639,14.659022,4.927702
13381,55.590770,37.672744,2.415750,1.024718,9.008184,-0.076336,-0.015267,0.076336,-1.006682,14.717723,4.970552
13481,55.590770,37.672744,2.288857,1.027112,8.991425,-0.061069,-0.015267,0.000000,-1.037451,14.710910,4.958839
13581,55.590770,37.672744,2.272097,1.029507,8.987833,-0.061069,-0.015267,-0.015267,-1.077134,14.733783,4.928922
13681,55.590770,37.672744,2.292448,1.012747,8.989030,-0.076336,-0.015267,-0.015267,-1.070572,14.770487,5.082040
13782,55.590770,37.672744,2.248155,1.013944,8.983045,-0.061069,-0.015267,0.000000,-1.118332,14.792724,5.044974
13882,55.590770,37.672744,2.300828,1.010353,8.986637,-0.061069,-0.015267,-0.015267,-1.111979,14.823445,5.198993
13982,55.590770,37.672744,2.309207,1.016339,9.002199,-0.076336,-0.015267,-0.015267,-1.104575,14.853272,5.359167
14082,55.590770,37.672744,2.266112,1.010353,8.987833,-0.061069,-0.015267,0.000000,-1.153301,14.876475,5.316030
14182,55.590770,37.672744,2.313996,1.007959,9.011775,-0.076336,-0.015267,-0.015267,-1.145796,14.906350,5.476240
14282,55.590770,37.672744,2.309207,0.992397,9.010579,-0.076336,-0.015267,-0.015267,-1.146003,14.922648,5.637111
14382,55.590770,37.672744,2.300828,0.986411,8.927979,-0.076336,-0.015267,-0.015267,-1.161473,14.918792,5.799425
14482,55.590770,37.672744,2.308010,0.999579,8.989030,-0.076336,-0.015267,-0.015267,-1.161312,14.942951,5.961490
14582,55.590770,37.672744,2.312799,1.009156,8.997410,-0.061069,-0.015267,-0.015267,-1.154230,14.958940,6.121392
14682,55.590770,37.672744,2.304419,0.992397,8.990228,-0.076336,-0.015267,-0.015267,-1.153945,14.983090,6.283484
14782,55.590770,37.672744,2.245761,0.994791,8.996213,-0.076336,-0.015267,-0.015267,-1.237720,14.977728,6.147921
14882,55.590770,37.672744,2.335544,0.970849,8.981848,-0.076336,-0.015267,0.000000,-1.231162,15.000709,6.300816
15036,55.590770,37.672744,2.313996,0.981623,8.991425,-0.061069,-0.015267,-0.015267,-1.269294,15.018217,6.394036
15136,55.590770,37.672744,2.306813,0.987608,9.012972,-0.076336,-0.015267,-0.015267,-1.261713,15.042164,6.555263
15236,55.590770,37.672744,2.310405,0.974440,8.961498,-0.061069,-0.015267,-0.015267,-1.261582,15.058615,6.716007
15336,55.590770,37.672744,2.308010,0.973243,8.975863,-0.061069,-0.015267,-0.015267,-1.261816,15.069058,6.877887
15436,55.590770,37.672744,2.313996,0.973243,8.981848,-0.061069,-0.015267,-0.015267,-1.254431,15.085124,7.037662
15536,55.590770,37.672744,2.310405,0.978031,8.985440,-0.076336,-0.015267,-0.015267,-1.254194,15.102483,7.199666
15636,55.590770,37.672744,2.312799,0.991199,9.001002,-0.061069,-0.015267,-0.015267,-1.246197,15.112540,7.367742
15736,55.590770,37.672744,2.304419,0.985214,8.987833,-0.076336,-0.015267,-0.015267,-1.246275,15.122042,7.528185
15836,55.590770,37.672744,2.322376,0.984017,9.002199,-0.061069,-0.015267,-0.015267,-1.238742,15.138972,7.689268
15936,55.590770,37.672744,2.261323,0.974440,9.004593,-0.076336,-0.015267,-0.015267,-1.313207,15.127182,7.574121
16036,55.590770,37.672744,2.318784,0.980426,9.004593,-0.076336,-0.015267,-0.015267,-1.305643,15.143270,7.733744
16136,55.590770,37.672744,2.313996,0.962469,9.001002,-0.061069,-0.015267,-0.015267,-1.305669,15.153775,7.895568
16236,55.590770,37.672744,2.308010,0.969652,8.987833,-0.061069,-0.015267,-0.015267,-1.305666,15.164285,8.057386
16336,55.590770,37.672744,2.321178,0.970849,8.991425,-0.076336,-0.015267,-0.015267,-1.305615,15.173863,8.217634
16436,55.590770,37.672744,2.312799,0.964863,8.995017,-0.061069,-0.015267,-0.015267,-1.305553,15.184369,8.379401
16536,55.590770,37.672744,2.321178,0.968455,8.998607,-0.061069,-0.015267,-0.015267,-1.305462,15.194875,8.541157
16636,55.590770,37.672744,2.318784,0.969652,9.002199,-0.061069,-0.015267,-0.015267,-1.304366,15.204463,8.708311
16736,55.590770,37.672744,2.313996,0.970849,8.986637,-0.061069,-0.015267,-0.015267,-1.304216,15.214968,8.869997
16836,55.590770,37.672744,2.449268,0.956484,8.996213,-0.076336,-0.015267,0.091603,-1.345213,15.246478,8.877639
17136,55.590766,37.672744,2.317587,0.968455,8.991425,-0.061069,-0.015267,-0.015267,-1.364019,15.233675,9.236435
17236,55.590766,37.672744,2.331953,0.956484,8.999805,-0.076336,-0.015267,-0.015267,-1.356618,15.243741,9.397130
17336,55.590766,37.672744,2.323573,0.954089,9.002199,-0.061069,-0.015267,-0.015267,-1.355933,15.247410,9.565576
17436,55.590766,37.672744,2.317587,0.950498,8.987833,-0.061069,-0.015267,-0.015267,-1.356202,15.251072,9.726930
17536,55.590766,37.672744,2.321178,0.964863,8.997410,-0.061069,-0.015267,-0.015267,-1.354930,15.261648,9.895449
17636,55.590766,37.672744,2.324770,0.955286,8.991425,-0.061069,-0.015267,-0.015267,-1.355168,15.265307,10.056721
17736,55.590766,37.672744,2.318784,0.957681,8.985440,-0.061069,-0.015267,-0.015267,-1.354811,15.275875,10.218112
17836,55.590766,37.672744,2.319981,0.948104,8.998607,-0.061069,-0.015267,-0.015267,-1.355020,15.279531,10.379298
17936,55.590766,37.672744,2.317587,0.957681,8.998607,-0.061069,-0.015267,-0.015267,-1.354855,15.276289,10.547291
18036,55.590766,37.672744,2.309207,0.954089,8.987833,-0.076336,-0.015267,-0.015267,-1.355052,15.279948,10.708369
18136,55.590766,37.672744,2.309207,0.960075,8.991425,-0.061069,-0.015267,-0.015267,-1.354271,15.283607,10.876408
18236,55.590766,37.672744,2.315193,0.973243,9.010579,-0.061069,-0.015267,-0.015267,-1.347289,15.286653,11.036504
18336,55.590766,37.672744,2.315193,0.957681,8.991425,-0.061069,-0.015267,-0.015267,-1.347456,15.290307,11.197410
18436,55.590766,37.672744,2.305616,0.967257,8.992622,-0.076336,-0.015267,-0.015267,-1.348266,15.287055,11.358086
18536,55.590766,37.672744,2.315193,0.956484,8.997410,-0.076336,-0.015267,-0.015267,-1.348422,15.290705,11.518864
18636,55.590766,37.672744,2.322376,0.958878,8.990228,-0.061069,-0.015267,-0.015267,-1.347591,15.295287,11.688774
18736,55.590766,37.672744,2.313996,0.962469,9.008184,-0.076336,-0.015267,-0.015267,-1.348409,15.292037,11.849269
18836,55.590766,37.672744,2.318784,0.961272,8.991425,-0.061069,-0.015267,-0.015267,-1.348542,15.295689,12.009863
18939,55.590766,37.672744,2.255338,0.956484,8.998607,-0.076336,-0.015267,-0.015267,-1.427583,15.280140,11.924056
19082,55.590766,37.672748,2.329558,0.952892,8.991425,-0.061069,-0.015267,-0.015267,-1.425460,15.292351,12.150658
19182,55.590766,37.672748,2.322376,0.942118,8.999805,-0.061069,-0.015267,-0.015267,-1.425583,15.296104,12.311100
19282,55.590766,37.672748,2.323573,0.944513,9.002199,-0.061069,-0.015267,-0.015267,-1.424717,15.300785,12.480776
19382,55.590766,37.672748,2.329558,0.956484,8.997410,-0.061069,-0.015267,-0.015267,-1.424087,15.311432,12.641263
19482,55.590766,37.672748,2.324770,0.962469,8.996213,-0.076336,-0.015267,-0.015267,-1.416036,15.315396,12.810005
19582,55.590766,37.672748,2.329558,0.946907,8.987833,-0.076336,-0.015267,-0.015267,-1.416104,15.319139,12.970164
19682,55.590766,37.672748,2.322376,0.956484,8.989030,-0.061069,-0.015267,-0.015267,-1.408030,15.323066,13.138805
19782,55.590766,37.672748,2.317587,0.944513,8.997410,-0.076336,-0.015267,-0.015267,-1.415992,15.320651,13.299454
19883,55.590766,37.672748,2.334347,0.942118,8.995017,-0.076336,-0.015267,-0.015267,-1.416019,15.325328,13.461894
19983,55.590766,37.672748,2.323573,0.944513,8.984242,-0.061069,-0.015267,-0.015267,-1.414292,15.335940,13.628833
20083,55.590766,37.672748,2.319981,0.940921,8.992622,-0.076336,-0.015267,-0.015267,-1.421426,15.341386,13.791986
20183,55.590766,37.672748,2.321178,0.944513,8.992622,-0.061069,-0.015267,-0.015267,-1.422213,15.339187,13.954071
20283,55.590766,37.672748,2.323573,0.944513,8.996213,-0.076336,-0.015267,-0.015267,-1.422210,15.342935,14.113646
20383,55.590766,37.672748,2.331953,0.951695,8.980651,-0.061069,-0.015267,-0.015267,-1.421201,15.347597,14.282691
20483,55.590766,37.672748,2.321178,0.950498,8.997410,-0.076336,-0.015267,-0.015267,-1.414850,15.344588,14.443772
20583,55.590766,37.672748,2.331953,0.949301,9.001002,-0.076336,-0.015267,-0.015267,-1.414824,15.348329,14.603069
20683,55.590766,37.672748,2.322376,0.946907,8.990228,-0.061069,-0.015267,-0.015267,-1.421894,15.353833,14.765834
20783,55.590766,37.672748,2.327164,0.952892,8.989030,-0.061069,-0.015267,-0.015267,-1.415547,15.350802,14.926719
20883,55.590766,37.672748,2.507926,0.913388,8.989030,-0.061069,-0.015267,0.045802,-1.433849,15.370172,15.046584
21144,55.590766,37.672748,2.324770,0.933739,9.002199,-0.076336,-0.015267,-0.015267,-1.486357,15.341090,15.284919
21244,55.590766,37.672748,2.328361,0.942118,9.008184,-0.061069,-0.015267,-0.015267,-1.486275,15.345859,15.446561
21344,55.590766,37.672748,2.325967,0.948104,8.986637,-0.061069,-0.015267,-0.015267,-1.479050,15.349755,15.607342
21444,55.590766,37.672748,2.325967,0.940921,9.003396,-0.061069,-0.015267,-0.015267,-1.477969,15.354485,15.775671
21544,55.590766,37.672748,2.325967,0.936133,8.987833,-0.061069,-0.015267,-0.015267,-1.477848,15.359242,15.937090
21644,55.590766,37.672748,2.331953,0.934936,9.003396,-0.061069,-0.015267,-0.015267,-1.469613,15.363064,16.104457
21744,55.590766,37.672748,2.322376,0.934936,9.006987,-0.061069,-0.015267,-0.015267,-1.477539,15.361853,16.266286
21844,55.590766,37.672748,2.329558,0.939724,8.996213,-0.061069,-0.015267,-0.015267,-1.469289,15.365648,16.433469
21944,55.590766,37.672748,2.323573,0.931344,8.990228,-0.061069,-0.015267,-0.015267,-1.476247,15.371330,16.595325
22044,55.590766,37.672748,2.334347,0.938527,9.003396,-0.061069,-0.015267,-0.015267,-1.476029,15.370120,16.766010
22144,55.590766,37.672748,2.329558,0.945710,8.973468,-0.061069,-0.015267,-0.015267,-1.475844,15.374874,16.926927
22244,55.590766,37.672748,2.335544,0.944513,8.996213,-0.076336,-0.015267,-0.015267,-1.468527,15.378665,17.086978
22344,55.590766,37.672748,2.324770,0.931344,8.998607,-0.061069,-0.015267,-0.015267,-1.474459,15.384337,17.255231
22444,55.590766,37.672748,2.329558,0.939724,8.995017,-0.061069,-0.015267,-0.015267,-1.475203,15.383167,17.418880
22544,55.590766,37.672748,2.328361,0.940921,8.996213,-0.061069,-0.015267,-0.015267,-1.475026,15.381013,17.585948
22644,55.590766,37.672748,2.323573,0.938527,9.004593,-0.061069,-0.015267,-0.015267,-1.475829,15.378905,17.746158
22744,55.590766,37.672748,2.339135,0.942118,9.080011,-0.076336,-0.015267,-0.015267,-1.475538,15.384596,17.909814
22844,55.590766,37.672748,2.310405,0.934936,9.012972,-0.076336,-0.015267,-0.015267,-1.535371,15.369537,17.860639
23144,55.590763,37.672748,0.925359,0.708684,7.753622,-0.183206,0.229008,0.045802,-5.369154,8.687401,15.117677
23244,55.590763,37.672748,1.361104,-0.216675,9.187749,-0.076336,-0.030534,0.106870,-5.855690,8.298357,14.793469
23344,55.590763,37.672748,1.092953,0.639252,9.455900,-0.076336,0.122137,0.091603,-6.078205,7.650318,13.618933
23444,55.590763,37.672748,1.003170,-0.166397,9.093178,-0.106870,0.076336,0.259542,-6.669362,6.608274,12.633462
23544,55.590763,37.672748,0.774524,0.241814,9.091981,0.015267,0.015267,0.198473,-6.728549,6.126123,10.458340
23644,55.590763,37.672748,1.051055,-0.158017,9.862915,-0.061069,0.061069,0.000000,-6.354308,5.903276,10.055608
23744,55.590763,37.672748,-0.107739,0.549469,10.210074,-0.015267,0.183206,0.320611,-6.393771,3.639438,8.061415
23844,55.590763,37.672748,-0.311246,1.219846,11.275493,0.015267,-0.458015,0.442748,-5.492193,4.160962,4.863428
23944,55.590763,37.672748,0.469264,1.587356,10.539277,0.076336,-0.152672,0.503817,-4.320205,6.973690,0.481732
24044,55.590763,37.672748,0.063446,1.541866,9.464280,-0.061069,0.122137,0.580153,-3.791484,5.640913,-4.735103
24144,55.590763,37.672748,0.591368,1.048660,8.197747,-0.076336,0.076336,0.977099,-4.191172,4.165195,-11.218053
24244,55.590763,37.672748,1.393425,0.330400,8.367735,-0.045802,-0.030534,0.778626,-4.667812,3.937924,-19.355037
24344,55.590763,37.672748,2.116474,0.417788,7.635109,0.076336,0.152672,1.007634,-4.918733,3.029944,-28.366537
24444,55.590763,37.672748,0.179565,0.572214,9.112332,-0.045802,0.290076,1.099237,-3.888247,0.117860,-37.959712
24544,55.590763,37.672748,0.699107,1.000776,8.865730,-0.198473,0.061069,1.175572,-3.952721,-1.158760,-48.656394
24644,55.590763,37.672748,1.404199,0.707487,8.777144,-0.045802,-0.305344,1.160305,-4.561060,-0.943106,-59.355472
24744,55.590763,37.672748,0.963666,0.945710,9.112332,0.015267,-0.045802,1.022901,-3.636027,-0.235693,-69.576980
24844,55.590763,37.672748,0.569820,0.532710,9.447521,0.061069,-0.198473,0.778626,-2.420277,0.873990,-78.091239
24944,55.590763,37.672748,0.339977,-0.782904,9.470265,0.045802,-0.274809,0.534351,-1.969434,2.624910,-84.523468
25210,55.590770,37.672756,2.161964,-0.897826,8.485052,0.045802,-0.167939,0.564885,-1.407237,7.735308,-98.807029
25310,55.590770,37.672756,2.643199,-0.243011,8.074445,0.152672,0.045802,0.488550,-1.339316,8.734973,-103.647048
25410,55.590770,37.672756,2.754529,0.300472,8.383297,0.259542,0.198473,0.442748,0.079633,7.972581,-107.996551
25510,55.590770,37.672756,2.209848,1.088165,9.877280,0.305344,0.213740,0.519084,2.767453,6.466319,-112.768341
25610,55.590770,37.672756,2.445677,1.339556,9.388862,0.290076,-0.152672,0.442748,5.419530,6.768622,-117.597518
25710,55.590770,37.672756,2.371457,1.234211,9.226057,0.259542,0.183206,0.427481,7.860837,6.840010,-121.933662
25810,55.590770,37.672756,1.576582,1.678335,9.120712,-0.045802,0.183206,0.412214,8.541644,6.199903,-126.524932
25910,55.590770,37.672756,1.837550,1.186327,7.304709,-0.198473,-0.030534,0.137405,6.834694,5.977778,-129.227355
26010,55.590770,37.672756,2.817975,0.586579,8.706515,-0.305344,0.167939,0.061069,4.527285,7.031752,-129.223693
26110,55.590770,37.672756,1.387440,1.126472,9.821016,-0.412214,-0.015267,-0.198473,1.738250,6.133044,-129.095520
26210,55.590770,37.672756,1.242591,-0.123301,10.917560,-0.549618,0.030534,-0.534351,-2.430867,6.502986,-125.403549
26310,55.590770,37.672756,0.894234,-0.427365,9.909602,-0.137405,0.229008,-0.809160,-4.520192,5.331717,-119.058891
26411,55.590770,37.672756,1.349133,0.110133,7.990648,-0.030534,-0.091603,-0.656488,-4.045974,5.579260,-112.074020
26511,55.590770,37.672756,2.080561,0.739808,7.449559,-0.122137,-0.412214,-0.549618,-3.538838,9.357086,-106.886825
26611,55.590770,37.672756,2.675520,0.938527,8.062475,0.015267,-0.076336,-0.244275,-2.830142,11.987882,-103.288024
26711,55.590770,37.672756,2.114080,1.158794,9.301474,0.091603,0.076336,0.015267,-0.843345,11.380170,-102.191284
26811,55.590770,37.672756,1.532289,1.796848,10.955867,0.122137,0.366412,0.335878,0.754729,8.961759,-103.873664
26911,55.590770,37.672756,-0.110133,2.834735,11.189302,0.000000,0.442748,0.503817,2.411483,4.327251,-108.276718
27127,55.590770,37.672756,0.622492,0.754173,7.299921,-0.030534,0.091603,0.335878,1.833412,1.098208,-117.670707
27227,55.590770,37.672756,0.063446,0.014365,10.065224,-0.198473,-0.259542,-0.015267,0.820805,2.704956,-119.331825
27327,55.590770,37.672756,-0.359130,-0.283713,11.046847,-0.198473,-0.030534,-0.412214,-0.796011,3.140751,-117.522575
27427,55.590770,37.672756,-0.021548,-0.228646,11.019313,-0.091603,0.183206,-0.656488,-1.739534,2.119547,-112.560737
27527,55.590770,37.672756,0.184354,0.215478,7.999028,-0.091603,0.015267,-0.656488,-2.147931,0.993687,-106.480659
27627,55.590770,37.672756,0.428562,0.927753,6.695385,-0.045802,-0.198473,-0.488550,-2.098770,1.974380,-101.018836
27727,55.590770,37.672756,0.876278,1.194707,8.370130,-0.122137,-0.320611,-0.229008,-2.286663,4.985619,-97.586349
27827,55.590770,37.672756,0.623690,1.558625,10.520123,0.061069,0.152672,0.198473,-1.715441,5.495983,-97.475471
27927,55.590770,37.672756,0.044293,2.385822,11.506534,0.030534,0.290076,0.595420,-0.129755,2.919816,-101.289955
28027,55.590770,37.672756,-0.329203,2.523488,9.892842,0.015267,0.305344,0.671756,1.174963,-0.086301,-107.813179
28127,55.590770,37.672756,-0.234632,1.071405,7.187394,-0.015267,0.137405,0.534351,1.981140,-2.230609,-113.108131
28227,55.590770,37.672756,-0.094571,0.647632,8.070855,-0.305344,-0.274809,0.320611,0.751445,-1.411543,-117.032432
28327,55.590770,37.672756,-0.489614,0.314838,10.293870,-0.458015,-0.229008,-0.030534,-2.637927,1.285240,-118.489814
28427,55.590770,37.672756,-0.652420,-0.379481,11.044453,-0.259542,0.106870,-0.381679,-5.639445,1.375618,-116.732475
28527,55.590770,37.672756,-0.969652,-0.845153,9.818622,0.122137,0.167939,-0.442748,-5.497098,-1.151648,-112.649421
28627,55.590770,37.672756,-1.525106,0.105345,8.892066,-0.045802,-0.137405,-0.519084,-4.858695,-1.673644,-108.219558
28727,55.590770,37.672756,-0.174777,0.853533,6.391322,-0.106870,-0.396947,-0.320611,-4.888730,0.355963,-104.665550
28827,55.590770,37.672756,1.541866,1.403002,8.414422,-0.045802,-0.305344,-0.061069,-5.049585,4.946662,-102.991676
29030,55.590793,37.672809,-0.355539,2.025495,10.128671,0.106870,0.213740,0.519084,-2.482868,1.298391,-107.571090
29130,55.590793,37.672809,-1.267730,2.832341,10.560824,0.061069,0.274809,0.396947,-0.351034,-0.953613,-111.705360
29230,55.590793,37.672809,-0.131681,0.646434,7.200562,-0.106870,0.091603,0.396947,0.457958,-3.212751,-115.278640
29330,55.590793,37.672809,0.076614,-0.193930,7.632715,-0.259542,-0.244275,0.396947,-0.889045,-2.308362,-119.320198
29430,55.590793,37.672809,-0.080206,-0.475249,10.244790,-0.229008,-0.167939,0.091603,-3.133595,0.016547,-122.073242
29530,55.590793,37.672809,-1.000776,-0.495600,10.831369,-0.122137,0.015267,-0.442748,-4.513314,-0.384624,-120.333953
29630,55.590793,37.672809,-0.814029,0.089783,10.876859,0.076336,0.076336,-0.595420,-4.185802,-0.686536,-115.374252
29730,55.590793,37.672809,-0.203507,0.142455,8.233660,0.000000,0.015267,-0.595420,-3.692738,-0.885227,-109.529205
29830,55.590793,37.672809,0.527921,0.902614,6.338649,-0.061069,-0.152672,-0.427481,-3.138631,-0.027989,-104.802131
29930,55.590793,37.672809,1.493982,0.954089,7.638700,-0.015267,-0.076336,-0.106870,-3.040851,1.958155,-102.243965
30030,55.590793,37.672809,0.500388,1.242591,10.880450,-0.061069,0.061069,0.320611,-2.666065,2.133164,-103.388023
30130,55.590793,37.672809,-0.250194,1.578976,11.872847,0.015267,0.091603,0.610687,-2.187394,1.156330,-107.707824
30230,55.590793,37.672809,-0.775721,1.951274,10.380062,-0.076336,0.061069,0.580153,-1.427335,-0.644233,-113.421066
30330,55.590793,37.672809,0.263362,0.934936,8.092402,-0.198473,0.198473,0.381679,-2.114503,-1.979198,-118.200088
30430,55.590793,37.672809,-0.292093,-0.289698,7.131130,-0.229008,-0.167939,0.305344,-3.780258,-2.266083,-121.758033
30530,55.590793,37.672809,-1.142034,-0.930147,8.372524,-0.198473,-0.351145,-0.106870,-5.675545,-0.054194,-123.107582
30630,55.590793,37.672809,-0.512359,-1.503559,10.395625,-0.030534,0.076336,-0.473282,-6.651223,0.778129,-120.279296
30730,55.590793,37.672809,-0.020351,-0.495600,11.359291,0.045802,0.213740,-0.488550,-6.675288,0.302540,-115.712371
30830,55.590793,37.672809,-1.176750,0.520739,10.426749,-0.198473,0.091603,-0.534351,-6.540164,-0.934034,-110.840507
30930,55.590793,37.672809,-0.215478,0.457293,6.259640,-0.167939,-0.229008,-0.366412,-7.716593,-0.405397,-106.369743
31098,55.590808,37.672836,1.297657,1.267730,8.344990,0.137405,-0.106870,0.045802,-6.195618,4.391786,-103.884437
31198,55.590808,37.672836,0.793678,1.952471,9.728839,0.091603,0.183206,0.320611,-4.120612,3.784313,-105.204246
31298,55.590808,37.672836,-0.682347,2.510320,11.135433,0.076336,0.290076,0.564885,-1.878274,0.567177,-109.410896
31398,55.590808,37.672836,-0.940921,1.948880,9.572019,-0.030534,0.351145,0.473282,-0.420150,-3.160713,-114.176712
31498,55.590808,37.672836,-0.299275,0.316035,7.078457,-0.259542,-0.183206,0.396947,-1.031601,-3.916258,-118.168716
31598,55.590808,37.672836,-0.250194,-0.438139,8.718486,-0.290076,-0.244275,0.167939,-3.728565,-1.435536,-121.379547
31698,55.590808,37.672836,-1.333570,-0.393846,10.700885,-0.091603,0.061069,-0.167939,-5.052816,-1.276865,-121.408996
31798,55.590808,37.672836,-1.653196,-0.310049,11.718420,0.000000,0.183206,-0.473282,-5.148246,-2.626514,-118.232673
31898,55.590808,37.672836,-1.230620,-0.852336,8.696938,0.152672,0.076336,-0.564885,-4.801251,-3.761056,-113.290298
31998,55.590808,37.672836,-0.507571,0.173580,6.536170,0.106870,-0.106870,-0.641221,-3.343888,-3.762665,-107.618232
32098,55.590808,37.672836,0.537498,1.161188,8.195353,-0.106870,-0.213740,-0.488550,-3.091636,-1.169797,-102.522529
32198,55.590808,37.672836,0.484826,1.088165,10.156204,-0.030534,0.167939,-0.106870,-3.198779,-0.437063,-100.307960
32299,55.590808,37.672836,-1.070208,1.798046,10.613496,0.000000,0.198473,0.351145,-1.968613,-2.791836,-101.411018
32399,55.590808,37.672836,-1.413776,1.805228,10.607511,-0.152672,0.045802,0.580153,-1.358745,-4.709509,-105.802734
32499,55.590808,37.672836,-0.762553,1.747767,8.663419,-0.244275,0.091603,0.641221,-1.855969,-5.672085,-111.876647
32599,55.590808,37.672836,-0.366313,0.928950,6.580463,-0.198473,-0.122137,0.519084,-2.623770,-5.663864,-117.278930
32699,55.590808,37.672836,-0.964863,0.871489,8.111556,-0.198473,-0.198473,0.213740,-3.341921,-4.640870,-121.187522
32799,55.590808,37.672836,-1.350330,-0.271742,10.880450,-0.137405,-0.015267,-0.244275,-4.820732,-3.265963,-121.167304
32899,55.590808,37.672836,-1.631648,-0.623690,11.729194,-0.106870,0.167939,-0.549618,-5.918370,-3.889211,-117.706626
32999,55.590824,37.672863,-1.420959,-0.533907,8.821436,0.030534,-0.152672,-0.641221,-6.108033,-4.511567,-111.338928
33116,55.590824,37.672863,-0.466869,-0.071826,7.779958,0.030534,0.030534,-0.625954,-5.795478,-2.987928,-104.921867
33216,55.590824,37.672863,0.203507,0.492008,6.944382,-0.030534,-0.183206,-0.351145,-5.474743,-1.884030,-100.312675
33316,55.590824,37.672863,0.770933,0.913388,9.285912,-0.122137,-0.152672,-0.106870,-5.406594,0.423275,-98.833511
33416,55.590824,37.672863,0.411803,1.435324,10.259155,-0.015267,0.091603,0.259542,-4.827314,0.606750,-99.664176
33516,55.590824,37.672863,-1.207875,1.696292,11.505336,0.015267,0.488550,0.503817,-3.382063,-2.984170,-103.600273
33616,55.590824,37.672863,-1.404199,1.671153,8.869320,0.061069,0.061069,0.671756,-1.679746,-5.712040,-108.617774
33716,55.590824,37.672863,-0.939724,1.240196,8.068460,-0.122137,0.076336,0.534351,-0.393467,-6.663137,-114.343986
33816,55.590824,37.672863,-1.095347,0.179565,7.518990,-0.244275,-0.229008,0.381679,-1.360233,-6.338244,-118.553268
33916,55.590824,37.672863,-1.177947,-0.646434,10.096349,-0.244275,-0.137405,-0.015267,-3.450928,-4.084464,-120.788368
34016,55.590824,37.672863,-2.043451,-0.590171,11.805809,-0.351145,0.045802,-0.488550,-5.737699,-4.550934,-118.420242
34116,55.590824,37.672863,-2.130840,-0.773327,10.277112,0.000000,0.091603,-0.595420,-7.382769,-5.899525,-113.180488
34216,55.590824,37.672863,-1.399411,-0.318429,7.862558,0.106870,-0.091603,-0.610687,-7.276859,-4.857454,-107.633407
34316,55.590824,37.672863,-0.354342,0.727837,6.710947,-0.015267,-0.305344,-0.503817,-5.972829,-2.882089,-102.847061
34416,55.590824,37.672863,1.297657,0.271742,8.639477,-0.152672,-0.167939,-0.244275,-6.145152,0.301689,-99.973579
34516,55.590824,37.672863,0.391452,0.554258,10.062830,0.061069,0.122137,0.106870,-5.679579,0.440253,-99.281417
34616,55.590824,37.672863,-1.600524,1.582567,11.423933,0.091603,0.198473,0.274809,-3.943307,-1.474650,-101.062194
34716,55.590824,37.672863,-1.492785,1.793257,9.003396,0.030534,0.000000,0.259542,-2.144724,-3.487099,-103.273986
34816,55.590824,37.672863,-0.609324,0.979228,8.407239,0.000000,0.244275,0.290076,-0.949302,-4.654862,-105.978355
34916,55.590824,37.672863,-0.585382,0.184354,7.766790,-0.122137,0.106870,0.229008,-1.058795,-6.705987,-108.160598
35055,55.590824,37.672863,-1.244985,-0.195127,10.642227,-0.244275,-0.274809,-0.076336,-3.062513,-3.752923,-110.544982
35155,55.590824,37.672863,-2.285265,-0.019154,11.688493,-0.305344,0.030534,-0.519084,-5.052253,-3.599251,-108.096817
35255,55.590824,37.672863,-2.185906,-0.871489,9.673772,-0.091603,0.030534,-0.854962,-7.367650,-4.406869,-101.398826
35355,55.590824,37.672863,-1.055843,-1.029507,8.365342,0.137405,0.015267,-0.931298,-7.391284,-3.671326,-93.430191
35456,55.590824,37.672863,-0.083797,-0.365116,7.073669,0.091603,-0.122137,-0.793893,-6.370418,-2.459013,-85.348541
35556,55.590824,37.672863,-0.010774,0.239420,8.152257,-0.061069,-0.259542,-0.488550,-5.889430,0.190165,-79.805885
35656,55.590824,37.672863,-0.505177,0.756568,9.725248,-0.015267,-0.106870,-0.152672,-5.180182,1.585179,-77.207740
35756,55.590824,37.672863,-0.538695,1.346738,11.517308,0.015267,0.183206,0.259542,-4.261426,1.092806,-77.765083
35856,55.590824,37.672863,-0.921768,2.100912,9.642648,-0.106870,0.015267,0.396947,-3.252671,-1.381233,-80.793884
35956,55.590824,37.672863,-0.481235,1.249773,9.121909,-0.091603,0.030534,0.503817,-3.488324,-1.081443,-85.014846
36056,55.590824,37.672863,-0.829591,0.785298,7.611167,0.000000,0.137405,0.442748,-2.651943,-2.800770,-89.595024
36156,55.590824,37.672863,-0.233435,0.252588,7.911640,-0.167939,-0.167939,0.305344,-3.027086,-2.780936,-93.156944
36256,55.590824,37.672863,-0.896629,0.488417,10.008960,-0.259542,-0.091603,-0.061069,-4.630554,-1.582660,-94.605773
36356,55.590824,37.672863,-1.461660,-0.160412,11.018116,-0.259542,0.045802,-0.305344,-6.391066,-1.824849,-93.148735
36456,55.590824,37.672863,-1.789666,-0.268151,10.182540,-0.015267,0.122137,-0.442748,-7.574854,-3.052304,-89.454795
36556,55.590824,37.672863,-1.249773,-0.355539,8.491037,0.045802,-0.061069,-0.534351,-7.290338,-2.912773,-84.523040
36656,55.590824,37.672863,-0.356736,-0.424971,7.123947,0.213740,-0.061069,-0.351145,-6.146096,-2.213747,-80.963500
36756,55.590824,37.672863,0.080206,1.085770,7.826645,0.091603,-0.366412,-0.167939,-3.526579,-0.030314,-78.892707
36856,55.590824,37.672863,0.913388,1.367089,9.273941,0.000000,-0.290076,0.000000,-2.276077,3.479820,-78.355926
36956,55.590824,37.672863,0.909797,1.634043,11.162966,-0.091603,0.167939,0.381679,-1.919376,4.006996,-80.009490
37126,55.590843,37.672901,-0.615310,1.985990,8.790312,0.061069,0.152672,0.488550,-0.148740,-1.391830,-87.532493
37226,55.590843,37.672901,-0.371101,1.265336,8.334217,-0.015267,0.229008,0.549618,0.950018,-3.334889,-92.374450
37326,55.590843,37.672901,-0.659603,1.074997,7.590816,-0.152672,0.030534,0.534351,0.976321,-4.809624,-97.503952
37426,55.590843,37.672901,-0.636858,0.560243,9.166202,-0.366412,-0.259542,0.229008,-0.742922,-3.360392,-101.413955
37526,55.590843,37.672901,-1.010353,-0.150835,11.088746,-0.351145,0.015267,-0.198473,-3.836070,-2.052534,-101.525703
37626,55.590843,37.672901,-1.957260,-0.478840,10.864888,-0.183206,0.442748,-0.595420,-6.509787,-4.586654,-97.511947
37726,55.590843,37.672901,-2.661155,-0.094571,8.862138,0.076336,0.030534,-0.687023,-6.603504,-7.104544,-91.301971
37826,55.590843,37.672901,-1.413776,-0.025139,7.586028,-0.061069,-0.305344,-0.671756,-6.627854,-5.401564,-85.197875
37926,55.590843,37.672901,-0.374693,0.281319,7.151481,0.000000,-0.290076,-0.641221,-6.737796,-2.004244,-79.741508
38026,55.590843,37.672901,0.754173,0.623690,8.570045,0.030534,-0.152672,-0.519084,-5.781052,0.968783,-74.590797
38126,55.590843,37.672901,0.608127,0.509965,10.497378,-0.076336,0.030534,-0.213740,-5.046057,1.542587,-71.149513
38226,55.590843,37.672901,0.345962,0.853533,11.530476,-0.015267,-0.076336,0.198473,-4.714422,2.136542,-71.344635
38326,55.590843,37.672901,0.204704,0.347159,9.619903,-0.030534,0.122137,0.274809,-4.681139,1.051304,-73.276947
38426,55.590843,37.672901,-0.159214,0.726640,8.690953,-0.030534,0.137405,0.320611,-4.324640,-0.322077,-76.115951
38526,55.590843,37.672901,-0.423774,0.903811,7.972692,0.030534,0.045802,0.290076,-3.413501,-1.392545,-79.040191
38626,55.590843,37.672901,-0.908600,0.944513,7.746439,-0.076336,-0.137405,0.198473,-2.597147,-1.594916,-81.594116
38726,55.590843,37.672901,-1.259350,0.515950,9.890448,-0.335878,-0.137405,-0.137405,-3.949567,-0.533944,-82.034461
38827,55.590843,37.672901,-1.833959,-0.436942,10.593146,-0.335878,0.106870,-0.595420,-6.965798,-0.929196,-78.562416
38927,55.590843,37.672901,-2.015918,-1.509544,10.248381,-0.015267,0.183206,-0.854962,-8.645297,-2.412770,-71.340164
39191,55.590843,37.672901,-0.914585,-0.050278,6.868965,0.091603,-0.167939,-0.885496,-5.944240,-2.248783,-48.964870
39291,55.590843,37.672901,0.089783,0.677559,8.631097,0.015267,-0.198473,-0.625954,-5.062878,0.602095,-42.109882
39391,55.590843,37.672901,0.391452,1.116895,10.602723,0.061069,0.244275,-0.167939,-3.633453,0.444046,-38.640998
39491,55.590843,37.672901,-0.571017,2.165555,12.155363,0.183206,0.442748,0.305344,-1.146924,-2.800593,-39.722164
39591,55.590843,37.672901,-1.987187,2.099715,9.606735,0.061069,-0.030534,0.381679,1.286534,-5.872202,-43.126857
39691,55.590843,37.672901,-1.608903,0.952892,8.401254,-0.137405,-0.458015,0.427481,1.680960,-3.640765,-46.953620
39791,55.590843,37.672901,-0.784101,0.697910,7.639898,-0.198473,-0.427481,0.351145,0.695609,0.459861,-50.544727
39891,55.590843,37.672901,-0.529119,0.618901,8.095993,-0.229008,-0.167939,0.183206,-0.996015,2.567957,-53.187778
39991,55.590843,37.672901,-1.031901,-0.009577,10.134656,-0.290076,0.061069,-0.229008,-2.896714,2.338391,-53.043891
40091,55.590843,37.672901,-1.656788,-0.757765,11.075577,-0.259542,0.061069,-0.564885,-5.047612,0.930501,-49.225963
40192,55.590843,37.672901,-1.738190,-1.215057,10.044874,0.061069,0.106870,-0.870229,-5.771414,-0.307977,-42.232376
40292,55.590843,37.672901,-0.768539,-0.347159,7.418434,0.122137,0.000000,-0.900763,-4.780840,-0.565871,-34.031250
40392,55.590843,37.672901,0.280122,0.687136,6.878541,0.061069,-0.152672,-0.687023,-2.982154,0.587584,-26.897584
40492,55.590843,37.672901,0.587777,1.675941,8.434773,-0.045802,-0.213740,-0.290076,-2.090438,2.651149,-22.455987
40592,55.590843,37.672901,0.811634,1.996764,10.158598,0.000000,0.000000,0.091603,-1.477256,4.106638,-21.431184
40692,55.590843,37.672901,0.293290,2.456451,11.353305,0.259542,0.458015,0.534351,0.953070,1.739303,-24.584732
40792,55.590843,37.672901,-1.417367,2.476802,10.423157,0.106870,0.274809,0.641221,3.897947,-2.412960,-30.048978
40892,55.590843,37.672901,-1.235408,1.034295,8.859744,-0.167939,-0.198473,0.534351,4.315412,-2.636423,-35.636440
40992,55.590843,37.672901,-0.551863,0.098162,7.896077,-0.351145,-0.412214,0.290076,1.664080,0.744462,-40.287761
41121,55.590835,37.672954,-0.930147,0.331597,9.269152,-0.366412,-0.320611,-0.091603,-2.018739,4.816929,-41.914192
41221,55.590835,37.672954,-2.054225,-0.934936,10.612299,-0.427481,-0.091603,-0.732824,-4.764122,5.242401,-38.551185
41321,55.590835,37.672954,-2.163161,-0.636858,11.279085,-0.259542,0.167939,-1.221374,-7.073676,3.857749,-28.672569
41421,55.590835,37.672954,-0.652420,-0.198719,9.297883,-0.167939,0.167939,-1.175572,-7.304685,2.802449,-17.549406
41521,55.590835,37.672954,0.413000,0.586579,6.057330,-0.244275,0.213740,-1.022901,-8.621170,2.467844,-7.192933
41621,55.590835,37.672954,0.367510,2.018312,7.734468,0.030534,0.152672,-0.595420,-8.193072,2.196691,0.240713
41721,55.590835,37.672954,0.392649,2.492364,9.155427,0.335878,0.045802,-0.198473,-4.906375,1.782624,3.817385
41821,55.590835,37.672954,-0.545878,2.345121,11.982980,0.320611,0.274809,0.274809,-0.255621,0.391509,3.001887
41921,55.590835,37.672954,-2.735375,2.062605,12.879609,0.290076,0.351145,0.534351,3.989690,-3.578926,-1.310380
42021,55.590835,37.672954,-1.945289,0.943315,8.414422,-0.122137,-0.335878,0.625954,5.258651,-4.056039,-7.597906
42121,55.590835,37.672954,-0.549469,0.457293,7.416040,-0.229008,-0.412214,0.503817,4.001375,-0.607361,-12.525996
42221,55.590835,37.672954,-0.122104,-0.202310,7.841011,-0.335878,-0.320611,0.290076,1.136503,2.714588,-16.423736
42321,55.590835,37.672954,-0.907402,-0.638055,10.253170,-0.610687,-0.320611,-0.152672,-3.735312,5.542499,-17.038009
42421,55.590835,37.672954,-0.877475,-1.035492,11.365276,-0.580153,-0.091603,-0.534351,-8.488271,6.911560,-13.515091
42521,55.590835,37.672954,-0.853533,-0.826000,9.306262,-0.061069,0.213740,-0.885496,-9.643225,5.152395,-5.699705
42621,55.590835,37.672954,0.173580,-0.070629,6.640318,0.030534,0.015267,-0.885496,-8.415934,5.149630,2.644304
42721,55.590835,37.672954,-28.646623,27.076026,-8.145074,-294.702301,474.961822,-444.961822,-30.814964,-3.326361,169.205215
42821,55.590835,37.672954,2.297236,0.477643,8.656237,0.000000,0.015267,-0.259542,-6.040561,8.104372,14.474286
42921,55.590835,37.672954,1.229423,0.751779,10.862494,0.122137,0.198473,0.152672,-4.418597,6.736559,14.675022
43145,55.590835,37.672954,-0.363919,1.119289,9.649830,-0.152672,0.137405,0.213740,-3.150714,1.284445,7.986664
43245,55.590835,37.672954,-0.748188,0.788889,6.888118,-0.274809,-0.229008,0.091603,-4.408544,1.414074,6.228566
43345,55.590835,37.672954,-0.761356,0.114922,7.657854,-0.259542,-0.335878,-0.015267,-6.753622,3.792267,6.061678
43445,55.590835,37.672954,-1.167173,-0.345962,10.662578,-0.274809,-0.137405,-0.580153,-8.595805,5.743999,8.887693
43545,55.590835,37.672954,-0.456095,-0.532710,10.690111,-0.091603,0.091603,-0.778626,-8.964199,5.789387,15.485109
43645,55.590835,37.672954,1.134852,-0.307655,9.033324,0.244275,0.259542,-0.534351,-6.773606,5.047961,21.456209
43745,55.590835,37.672954,1.939303,1.411382,6.734889,0.213740,0.351145,0.030534,-3.228280,2.259630,23.853969
43845,55.590835,37.672954,1.151611,2.276886,7.334637,-0.106870,-0.015267,0.335878,-1.862753,0.975007,22.023450
43945,55.590835,37.672954,-0.207098,1.462857,10.108320,-0.030534,-0.122137,0.793893,-1.783228,2.119725,16.679187
44045,55.590835,37.672954,-0.381875,2.078167,10.183737,0.000000,-0.061069,1.206107,-0.992986,1.675872,7.374184
44145,55.590835,37.672954,-0.604536,2.598906,11.841722,-0.122137,0.274809,1.267176,-0.409294,0.081473,-4.624462
44246,55.590835,37.672954,-0.713472,2.146402,9.135077,-0.259542,0.122137,1.007634,-0.406227,-2.059494,-15.424510
44346,55.590835,37.672954,-0.343568,0.403423,6.451177,-0.366412,-0.519084,0.793893,-2.706736,-0.624147,-23.371862
44446,55.590835,37.672954,-0.320823,0.149638,8.883686,-0.335878,-0.274809,0.458015,-5.607202,3.040181,-29.406772
44546,55.590835,37.672954,-1.071405,-0.517148,9.519347,-0.274809,0.259542,-0.091603,-8.250562,1.630601,-30.680446
44646,55.590835,37.672954,-0.482432,-1.655591,9.883265,-0.076336,0.366412,-0.335878,-10.118891,-0.816048,-28.238344
44746,55.590835,37.672954,-1.590947,-1.361104,9.428367,0.167939,0.396947,-0.442748,-9.484123,-4.419863,-24.802949
44846,55.590835,37.672954,-0.439336,-0.581791,7.043741,0.122137,-0.122137,-0.351145,-8.115883,-5.259252,-21.019012
45046,55.590805,37.672996,0.701501,0.569820,9.508572,0.106870,0.198473,0.030534,-5.554661,-2.633450,-17.392423
45146,55.590805,37.672996,-0.434548,1.300052,9.958683,0.061069,0.167939,0.335878,-3.819681,-4.589092,-19.031799
45246,55.590805,37.672996,-1.491588,1.934515,11.267113,-0.045802,0.396947,0.488550,-2.090126,-7.527491,-23.222404
45346,55.590805,37.672996,-1.136049,1.043872,8.227675,-0.091603,0.305344,0.580153,-1.300168,-11.330163,-28.538007
45446,55.590805,37.672996,-0.810437,0.069432,7.206547,-0.183206,0.000000,0.519084,-0.885552,-12.412002,-33.639057
45546,55.590805,37.672996,-1.659182,-0.186748,8.889672,-0.366412,0.045802,0.213740,-2.978279,-12.535988,-37.264904
45646,55.590805,37.672996,-2.971204,-0.144849,9.906010,-0.106870,0.000000,-0.122137,-4.841862,-12.725267,-37.904048
45746,55.590805,37.672996,-3.804387,-0.621295,11.407175,-0.030534,0.000000,-0.564885,-6.044050,-12.676280,-34.433242
45846,55.590805,37.672996,-3.156755,-0.696713,10.193314,0.061069,-0.106870,-0.641221,-6.475926,-12.379143,-28.864374
45946,55.590805,37.672996,-1.262941,-0.284910,7.131130,0.000000,-0.320611,-0.595420,-6.927167,-10.102943,-22.974050
46046,55.590805,37.672996,-0.044293,0.120907,6.867768,-0.045802,-0.320611,-0.458015,-7.392141,-5.779420,-18.141557
46146,55.590805,37.672996,-0.033519,0.515950,8.750807,0.076336,0.015267,-0.152672,-6.667535,-3.933478,-15.278460
46246,55.590805,37.672996,-0.826000,1.368286,10.279505,-0.030534,0.137405,0.213740,-5.235940,-5.137832,-15.805994
46346,55.590805,37.672996,-1.948880,1.950077,10.893618,-0.030534,0.412214,0.381679,-3.836999,-8.579021,-19.310144
46446,55.590805,37.672996,-1.920150,1.794454,8.722077,-0.106870,0.290076,0.366412,-2.777366,-12.057537,-23.298570
46546,55.590805,37.672996,-1.350330,0.602142,6.479907,-0.167939,-0.061069,0.335878,-2.529603,-13.245467,-26.742603
46646,55.590805,37.672996,-1.759738,-0.282516,8.285136,-0.198473,-0.213740,0.106870,-3.708151,-11.915409,-29.020021
46746,55.590805,37.672996,-2.800019,-0.175974,10.720039,-0.152672,-0.106870,-0.229008,-4.881414,-10.719370,-28.880195
46846,55.590805,37.672996,-3.465607,-0.567426,11.883621,-0.045802,0.061069,-0.580153,-6.285237,-10.706919,-25.225000
46946,55.590805,37.672996,-2.572570,-0.945710,8.848970,0.106870,-0.244275,-0.610687,-6.742787,-9.879941,-18.784654
47112,55.590797,37.673011,-0.044293,0.375890,6.687005,0.122137,-0.137405,-0.519084,-5.318039,-6.273316,-9.608814
47212,55.590797,37.673011,0.155623,1.471237,8.784326,-0.106870,-0.198473,-0.152672,-4.486651,-4.209016,-6.634088
47312,55.590797,37.673011,-0.470461,1.450886,10.438720,-0.167939,-0.030534,0.274809,-4.885756,-2.887370,-7.544348
47412,55.590797,37.673011,-1.666364,1.787272,11.857284,-0.061069,0.427481,0.519084,-4.528861,-5.053324,-11.935498
47512,55.590797,37.673011,-2.176329,2.166753,8.573637,0.000000,0.213740,0.549618,-2.682437,-9.318887,-17.077856
47612,55.590797,37.673011,-1.252167,0.495600,6.767211,-0.167939,-0.076336,0.396947,-2.103042,-10.275272,-21.569742
47712,55.590797,37.673011,-1.046266,-0.559046,7.641095,-0.213740,-0.045802,0.244275,-3.449054,-9.698703,-24.905523
47812,55.590797,37.673011,-2.651578,-0.742202,9.794679,-0.152672,-0.106870,-0.045802,-5.011829,-9.743392,-25.776704
47912,55.590797,37.673011,-3.251326,-0.433350,11.358094,-0.244275,-0.229008,-0.458015,-6.776411,-8.418729,-23.619659
48012,55.590797,37.673011,-2.765303,-0.076614,10.074801,0.213740,0.061069,-0.687023,-6.728106,-8.522452,-18.105941
48112,55.590797,37.673011,-1.161188,0.147243,7.351396,0.061069,-0.137405,-0.656488,-5.859900,-7.535432,-11.918281
48212,55.590797,37.673011,-0.089783,0.718261,6.774394,-0.015267,-0.076336,-0.503817,-5.767315,-5.687139,-6.635795
48312,55.590797,37.673011,0.119710,1.175553,8.984242,0.030534,-0.106870,-0.137405,-4.922207,-4.457194,-3.678021
48412,55.590797,37.673011,-0.933739,1.478420,10.890027,0.000000,-0.015267,0.244275,-3.681097,-3.937022,-4.419886
48512,55.590797,37.673011,-1.729811,1.881842,11.552023,0.045802,0.244275,0.488550,-2.256103,-5.014155,-8.312559
48612,55.590797,37.673011,-1.728614,2.218228,9.097967,-0.137405,0.061069,0.473282,-0.907684,-7.186804,-12.987492
48712,55.590797,37.673011,-0.799663,0.630872,6.490681,-0.244275,-0.091603,0.396947,-1.648514,-7.178459,-17.166093
48812,55.590797,37.673011,-0.915782,-0.231040,7.667431,-0.274809,-0.137405,0.167939,-3.519267,-6.408121,-19.927143
49112,55.590797,37.673015,-2.070984,-1.338359,9.227253,0.198473,0.076336,-0.595420,-7.740847,-7.421857,-11.609848
49212,55.590797,37.673015,-1.088165,-0.300472,7.624335,0.213740,0.045802,-0.595420,-6.160432,-7.587239,-5.958930
49312,55.590797,37.673015,0.238223,0.666785,6.865374,0.091603,-0.213740,-0.381679,-4.680893,-5.922497,-1.281780
49412,55.590797,37.673015,0.088585,1.584961,9.302671,0.122137,-0.167939,-0.045802,-3.001741,-3.376761,0.751917
49512,55.590797,37.673015,-0.963666,2.425326,10.918757,0.000000,0.015267,0.351145,-0.755723,-3.243875,-0.785337
49612,55.590797,37.673015,-2.114080,2.375048,10.963050,-0.122137,0.305344,0.488550,-0.031951,-5.345490,-5.193454
49712,55.590797,37.673015,-1.623269,2.009932,8.398860,-0.213740,0.198473,0.534351,0.178700,-7.967792,-10.294370
49812,55.590797,37.673015,-0.672771,0.702698,6.700173,-0.290076,0.076336,0.427481,-0.977459,-9.324499,-14.992142
49912,55.590797,37.673015,-1.084573,0.378284,8.325837,-0.335878,-0.106870,0.259542,-2.967664,-9.254313,-18.787872
50012,55.590797,37.673015,-2.881422,-0.128090,10.939108,-0.213740,-0.030534,-0.122137,-4.941587,-8.846817,-19.941959
50112,55.590797,37.673015,-3.339911,-0.671574,11.610682,-0.030534,0.061069,-0.442748,-6.498614,-8.834795,-17.296518
50212,55.590797,37.673015,-2.381034,-1.003170,8.876503,0.091603,-0.015267,-0.610687,-6.732018,-9.764944,-12.062121
50312,55.590797,37.673015,-1.237802,0.069432,6.658275,0.061069,-0.335878,-0.564885,-6.047977,-7.521387,-6.868414
50412,55.590797,37.673015,0.053870,0.159214,7.340622,0.045802,-0.198473,-0.458015,-5.621850,-4.109843,-1.788714
50512,55.590797,37.673015,-0.260968,0.600945,10.104729,-0.015267,0.030534,0.000000,-4.898055,-3.105993,0.454203
50612,55.590797,37.673015,-0.758962,1.816002,10.637438,-0.152672,-0.091603,0.396947,-4.306566,-3.563032,-1.561176
50712,55.590797,37.673015,-0.617704,1.856703,10.216059,-0.122137,0.137405,0.625954,-4.059238,-4.093752,-6.973533
50812,55.590797,37.673015,-1.088165,1.753753,8.311471,-0.137405,0.244275,0.519084,-3.534560,-6.596623,-12.688282
50912,55.590797,37.673015,-0.845153,0.392649,6.653487,-0.183206,-0.106870,0.427481,-3.795593,-7.751218,-17.022583
51117,55.590797,37.673015,-2.212242,-0.470461,11.040862,-0.122137,0.076336,-0.229008,-5.941681,-5.878061,-20.408668
51217,55.590797,37.673015,-2.718616,-0.834379,11.586740,-0.030534,0.229008,-0.580153,-7.115658,-7.107136,-16.957176
51317,55.590797,37.673015,-2.098518,-0.598550,8.695741,0.137405,0.015267,-0.610687,-6.793425,-8.459393,-11.471206
51417,55.590797,37.673015,-0.335188,0.541090,6.995857,-0.167939,-0.167939,-0.580153,-7.274345,-6.758641,-6.020452
51517,55.590797,37.673015,0.445322,0.657208,8.122330,-0.061069,-0.076336,-0.381679,-7.953907,-4.669544,-1.628629
51617,55.590797,37.673015,0.240617,0.793678,9.727642,0.000000,-0.152672,0.122137,-7.565770,-2.853596,-0.487967
51717,55.590797,37.673015,-0.063446,1.521515,10.572795,0.045802,-0.015267,0.625954,-5.876301,-2.342352,-3.942198
51817,55.590797,37.673015,-1.370680,2.059013,10.195709,-0.152672,0.229008,0.671756,-4.791000,-4.848639,-10.414986
51917,55.590797,37.673015,-1.514333,1.247379,7.947553,0.000000,0.137405,0.549618,-3.638886,-7.393705,-16.414722
52017,55.590797,37.673015,-0.845153,0.020351,6.855796,-0.152672,-0.137405,0.473282,-3.443551,-7.518490,-21.217309
52117,55.590797,37.673015,-1.638831,-0.216675,9.257182,-0.320611,-0.122137,0.122137,-4.844181,-6.528383,-24.386560
52217,55.590797,37.673015,-2.549825,-1.394622,10.390836,-0.412214,0.000000,-0.305344,-8.714687,-6.383226,-23.667922
52317,55.590797,37.673015,-2.589329,-1.744176,10.935517,0.106870,0.335878,-0.595420,-10.690786,-7.925485,-19.680656
52417,55.590797,37.673015,-1.486799,-0.544681,8.519767,0.152672,0.061069,-0.625954,-9.559353,-9.084871,-14.168300
52517,55.590797,37.673015,0.017957,0.002394,6.234501,0.167939,-0.076336,-0.534351,-8.569255,-7.737465,-8.541759
52617,55.590797,37.673015,0.073023,0.806846,8.222887,0.167939,-0.061069,-0.366412,-6.661421,-6.403302,-4.129677
52717,55.590797,37.673015,-0.990002,1.098939,10.600329,0.137405,0.000000,0.152672,-4.397336,-5.879150,-3.253116
52817,55.590797,37.673015,-1.066617,2.085350,10.911575,-0.030534,-0.091603,0.717557,-2.394916,-5.338408,-7.098434
52917,55.590797,37.673015,-1.879448,2.885013,11.149798,-0.320611,0.259542,0.671756,-1.452220,-7.097709,-14.004531
53178,55.590797,37.673015,-1.988385,-0.688333,7.787141,-0.213740,-0.229008,0.167939,-4.818993,-7.675296,-26.509078
53278,55.590797,37.673015,-2.932897,-0.629675,10.029312,-0.045802,0.061069,-0.366412,-6.265069,-7.630228,-25.783315
53378,55.590797,37.673015,-2.208651,-0.666785,11.900380,0.122137,0.290076,-0.732824,-6.419627,-8.691036,-20.421571
53478,55.590797,37.673015,-2.193089,-0.508768,9.971851,0.213740,0.137405,-0.763359,-5.647428,-10.961553,-13.246070
53578,55.590797,37.673015,-0.781707,0.335188,7.243657,-0.030534,-0.305344,-0.595420,-5.445653,-9.029646,-7.154892
53678,55.590797,37.673015,0.338780,0.705092,6.947973,0.000000,-0.183206,-0.396947,-5.566119,-5.822839,-2.730951
53778,55.590797,37.673015,-0.360327,1.404199,9.570822,0.061069,0.045802,-0.030534,-4.339274,-4.649704,-0.743933
53878,55.590797,37.673015,-1.479617,2.572570,10.475830,-0.030534,0.091603,0.503817,-2.426849,-5.923012,-2.918985
53978,55.590797,37.673015,-2.157176,3.283648,10.539277,0.091603,0.274809,0.717557,0.458565,-8.552664,-8.969512
54078,55.590797,37.673015,-1.880645,2.354697,8.000226,-0.076336,0.198473,0.687023,2.728700,-11.040811,-15.503346
54178,55.590797,37.673015,-0.942118,0.642843,6.453571,-0.290076,-0.167939,0.580153,2.605499,-10.608379,-21.693462
54278,55.590797,37.673015,-1.420959,0.588974,8.340202,-0.305344,-0.229008,0.290076,0.572394,-8.459898,-26.053991
54378,55.590797,37.673015,-3.154361,0.283713,11.553221,-0.213740,0.000000,-0.167939,-1.223859,-7.950750,-27.261007
54478,55.590797,37.673015,-3.082535,-0.870292,11.243171,-0.091603,0.122137,-0.519084,-3.360178,-9.559450,-23.998783
54578,55.590797,37.673015,-1.709460,-0.985214,8.294713,0.030534,-0.137405,-0.534351,-4.938313,-8.828495,-19.114618
54678,55.590797,37.673015,-0.641646,0.237026,5.665878,0.167939,-0.167939,-0.641221,-4.452709,-7.508791,-13.352239
54778,55.590797,37.673015,0.059855,1.185130,8.188170,0.061069,-0.366412,-0.335878,-2.900401,-3.908640,-8.778797
54878,55.590797,37.673015,0.266953,1.574188,10.321404,-0.137405,-0.122137,0.106870,-2.428081,-1.444288,-7.650776
54978,55.590797,37.673015,-0.240617,1.936909,11.026496,-0.167939,0.076336,0.641221,-3.034388,-1.208808,-11.659914
55117,55.590717,37.673065,-1.499967,2.718616,9.556456,-0.045802,0.396947,0.580153,-1.741163,-5.925107,-19.549364
55217,55.590717,37.673065,-0.843956,0.961272,6.536170,-0.152672,0.061069,0.442748,-0.892853,-8.528330,-24.368944
55317,55.590717,37.673065,-0.821211,0.035913,7.746439,-0.213740,-0.045802,0.290076,-2.032815,-8.211976,-28.242652
55417,55.590717,37.673065,-2.244564,0.391452,10.455479,-0.229008,-0.030534,-0.091603,-3.361073,-7.958735,-29.595436
55517,55.590717,37.673065,-3.155558,0.064643,12.168531,-0.061069,0.229008,-0.488550,-4.929137,-9.065732,-27.003469
55617,55.590717,37.673065,-2.894590,-0.804452,9.713276,0.183206,-0.061069,-0.564885,-4.807402,-10.726020,-21.773143
55717,55.590717,37.673065,-1.217452,0.192733,6.936002,0.061069,-0.213740,-0.702290,-4.321607,-8.911553,-15.707852
55817,55.590717,37.673065,0.304064,0.384269,6.511032,0.045802,-0.183206,-0.503817,-4.016148,-6.058535,-10.090318
55917,55.590717,37.673065,0.226252,0.656011,9.015367,0.015267,-0.061069,-0.122137,-3.583206,-4.490737,-6.898857
56017,55.590717,37.673065,-0.093374,1.880645,10.358514,-0.030534,-0.061069,0.381679,-2.360818,-3.821582,-8.256278
56117,55.590717,37.673065,-1.625663,2.861071,11.801021,-0.061069,0.366412,0.641221,-0.980497,-5.705887,-13.817028
56217,55.590717,37.673065,-1.687912,2.592921,9.151837,-0.213740,0.122137,0.702290,-0.245547,-7.858804,-20.475271
56317,55.590717,37.673065,-1.151611,1.053449,6.339846,-0.259542,0.106870,0.488550,-0.631936,-9.482506,-26.455188
56417,55.590717,37.673065,-1.369483,-0.155623,7.167043,-0.229008,-0.091603,0.351145,-2.218531,-9.439655,-30.959699
56517,55.590717,37.673065,-2.908955,-0.367510,10.864888,-0.183206,-0.015267,-0.152672,-3.612428,-9.021163,-32.280628
56617,55.590717,37.673065,-3.323152,-0.940921,12.014104,-0.076336,0.213740,-0.595420,-5.953495,-9.989067,-28.757078
56717,55.590717,37.673065,-2.943671,-0.739808,9.422381,0.137405,-0.015267,-0.687023,-6.238858,-11.727905,-22.671586
56817,55.590717,37.673065,-1.338359,0.411803,6.829460,0.091603,-0.213740,-0.671756,-5.804788,-9.769673,-16.574270
56918,55.590717,37.673065,0.338780,0.787692,6.183026,0.076336,-0.198473,-0.442748,-5.196135,-6.976655,-10.986418
57174,55.590717,37.673065,-1.254562,2.378639,11.797430,0.045802,0.244275,0.687023,-1.534618,-6.210659,-13.209907
57274,55.590717,37.673065,-2.087744,3.396175,10.375273,-0.290076,0.137405,0.763359,0.325588,-8.652109,-20.272518
57374,55.590717,37.673065,-1.235408,1.424550,6.381745,-0.396947,-0.015267,0.671756,-1.005969,-9.537625,-27.427944
57474,55.590717,37.673065,-0.797269,0.541090,6.714539,-0.412214,-0.122137,0.580153,-3.299890,-8.896395,-33.670715
57574,55.590717,37.673065,-1.677138,0.397438,9.101558,-0.335878,-0.152672,0.290076,-5.444499,-7.994622,-37.890800
57674,55.590717,37.673065,-2.418144,0.114922,11.847707,-0.259542,0.152672,-0.076336,-7.255783,-8.425726,-39.076702
57774,55.590717,37.673065,-2.327164,-0.457293,10.254366,0.137405,0.183206,0.091603,-6.663684,-11.586650,-39.024906
57874,55.590717,37.673065,-1.176750,0.487220,8.593988,-0.198473,-0.061069,0.259542,-5.577442,-11.646452,-40.937545
57974,55.590717,37.673065,-0.241814,0.034716,6.321889,-0.015267,-0.045802,0.595420,-5.706739,-11.239949,-44.713554
58074,55.590717,37.673065,-1.024718,0.438139,8.175003,-0.015267,-0.137405,0.854962,-3.851131,-10.789882,-51.388835
58174,55.590717,37.673065,-1.926135,0.386664,10.741586,-0.076336,0.076336,0.900763,-2.225978,-10.987689,-59.662258
58274,55.590717,37.673065,-2.109292,0.712275,11.881226,-0.106870,0.244275,0.778626,-1.110404,-11.923783,-67.668876
58374,55.590717,37.673065,-1.976413,1.030704,9.447521,-0.167939,0.198473,0.595420,-0.157803,-14.485887,-74.151260
58474,55.590717,37.673065,-1.877054,0.509965,6.819883,-0.198473,-0.030534,0.122137,-0.897879,-15.576099,-77.643196
58574,55.590717,37.673065,-1.607706,-0.445322,6.774394,-0.030534,-0.274809,-0.244275,-2.442917,-13.728592,-76.875137
58674,55.590717,37.673065,-2.601300,-0.232238,9.386468,-0.045802,-0.167939,-0.885496,-3.625499,-11.727861,-71.706817
58774,55.590717,37.673065,-2.686294,-0.282516,11.167755,-0.137405,-0.030534,-1.343511,-6.138080,-10.436894,-61.286224
58874,55.590717,37.673065,-2.997540,-0.500388,10.696097,0.076336,0.183206,-1.587786,-8.989022,-10.140150,-47.369106
59174,55.590663,37.673107,0.657208,0.804452,8.157046,0.122137,-0.167939,-0.564885,-5.267524,-1.168979,-14.785715
59274,55.590663,37.673107,-0.371101,1.278504,10.623073,0.106870,0.091603,0.106870,-3.096647,-0.746130,-13.234315
59374,55.590663,37.673107,-0.500388,1.243788,11.669340,0.030534,0.396947,0.671756,-1.694666,-2.862032,-17.399358
59474,55.590663,37.673107,-2.182315,2.791639,10.127473,-0.213740,0.412214,0.641221,-0.714344,-7.595874,-24.012695
59574,55.590663,37.673107,-1.423353,0.891840,6.096835,-0.335878,-0.213740,0.412214,-1.976770,-9.044853,-28.936132
59674,55.590663,37.673107,-0.857124,-0.118513,7.283162,-0.229008,-0.305344,0.183206,-3.923863,-6.486285,-31.862312
59774,55.590663,37.673107,-2.647987,0.208296,10.947487,-0.198473,-0.091603,-0.167939,-5.021484,-4.987303,-32.431549
59874,55.590663,37.673107,-2.706645,-0.675165,11.535264,-0.290076,-0.061069,-0.595420,-7.264136,-5.196427,-28.836671
59974,55.590663,37.673107,-1.867477,-1.150414,9.973048,0.183206,0.183206,-0.641221,-7.812559,-5.934651,-23.058959
60075,55.590663,37.673107,-1.051055,-0.132878,7.167043,0.106870,0.015267,-0.595420,-6.628876,-6.748518,-17.226964
60175,55.590663,37.673107,0.260968,0.609324,6.964733,-0.015267,-0.167939,-0.381679,-6.458625,-4.656707,-12.756055
60275,55.590663,37.673107,0.630872,1.255759,9.443929,-0.061069,-0.045802,0.106870,-6.056999,-2.630747,-11.460606
60375,55.590663,37.673107,-0.840365,1.681927,10.181344,0.015267,0.030534,0.488550,-4.778521,-3.521073,-14.558428
60475,55.590663,37.673107,-2.406173,1.453280,12.243947,0.106870,0.213740,0.610687,-2.504627,-4.968660,-20.503210
60575,55.590663,37.673107,-2.331953,1.400608,9.024944,-0.076336,0.137405,0.473282,-0.936770,-7.736893,-25.666774
60675,55.590663,37.673107,-1.092953,0.368707,6.290765,-0.259542,-0.106870,0.351145,-1.596914,-8.050116,-29.686603
60775,55.590663,37.673107,-1.393425,-0.634463,8.202535,-0.320611,-0.183206,0.061069,-4.302194,-6.706249,-31.702262
60875,55.590663,37.673107,-3.288436,-0.848744,11.060015,-0.274809,0.106870,-0.442748,-7.496719,-6.968286,-30.037849
60975,55.590663,37.673107,-2.935291,-1.265336,10.582372,0.106870,0.167939,-0.748092,-9.153087,-8.430095,-23.749958
61145,55.590637,37.673126,-0.824802,0.533907,7.857770,-0.015267,-0.030534,-0.625954,-6.362729,-7.423475,-13.527527
61245,55.590637,37.673126,0.271742,0.160412,6.080075,-0.076336,-0.137405,-0.381679,-7.183928,-6.041469,-9.361505
61345,55.590637,37.673126,0.281319,0.215478,9.197326,0.091603,-0.015267,0.061069,-6.555950,-3.847020,-7.854694
61445,55.590637,37.673126,-0.927753,0.695516,11.079169,0.106870,0.137405,0.458015,-4.595205,-5.173701,-10.068847
61545,55.590637,37.673126,2.115277,8.531738,-13.056779,335.633575,299.022888,-383.358764,-56.040645,-0.882867,-166.868133
61645,55.590637,37.673126,-1.516727,0.998382,8.186973,-0.183206,-0.198473,0.381679,-4.324090,-6.955621,-20.681230
61745,55.590637,37.673126,-0.289698,0.347159,6.306327,-0.274809,-0.335878,0.259542,-5.122622,-5.030378,-23.381315
61845,55.590637,37.673126,-0.985214,0.599748,8.112753,-0.122137,-0.213740,-0.015267,-6.880503,-2.220722,-24.819150
61945,55.590637,37.673126,-2.051831,-0.615310,10.787076,-0.167939,-0.167939,-0.229008,-7.668408,-1.152424,-23.534692
62045,55.590637,37.673126,-1.042675,-0.916979,11.951855,-0.122137,0.167939,-0.534351,-9.117150,-0.508254,-19.772691
62145,55.590637,37.673126,-0.641646,-1.423353,8.634689,0.183206,0.351145,-0.549618,-8.735347,-2.938905,-14.702771
62245,55.590637,37.673126,-0.154426,-0.429759,5.948394,0.030534,-0.122137,-0.519084,-7.901639,-3.385408,-9.755019
62345,55.590637,37.673126,0.934936,0.232238,8.344990,0.137405,-0.122137,-0.244275,-6.578265,-1.091518,-6.253161
62445,55.590637,37.673126,0.073023,0.853533,10.480618,0.045802,0.076336,0.183206,-4.887520,-0.719253,-6.046097
62545,55.590637,37.673126,-0.265756,1.306037,10.664972,0.076336,0.244275,0.580153,-3.352387,-2.291821,-9.781538
62645,55.590637,37.673126,-2.015918,2.225410,9.715671,0.030534,0.290076,0.473282,-1.047630,-6.479743,-14.544819
62745,55.590637,37.673126,-1.320402,1.431733,7.773973,-0.244275,0.045802,0.320611,-0.755352,-8.529965,-18.100667
62845,55.590637,37.673126,-0.374693,0.191536,7.041347,-0.274809,-0.183206,0.213740,-2.697200,-7.399487,-20.857749
62945,55.590637,37.673126,-1.411382,0.104148,9.129092,-0.076336,-0.091603,-0.015267,-3.660526,-6.000762,-22.171850
