time,gFx,gFy,gFz,wx,wy,wz,lat,lon,altitude,speed,yaw,pitch,roll
2026-05-08T15:54:47.826Z,-0.0958,-0.9540,-0.4078,-0.2210,-0.2671,0.0083,55.59120597547465,37.671920075761314,171.4880,-1.0000,-49.66,68.92,-11.70
2026-05-08T15:54:47.837Z,-0.0989,-0.9704,-0.3921,0.0405,-0.0101,-0.0160,55.59120597547465,37.671920075761314,171.4880,-1.0000,-49.67,68.91,-11.70
2026-05-08T15:54:47.848Z,-0.1074,-0.9682,-0.3512,0.0203,-0.0152,-0.0232,55.59120597547465,37.671920075761314,171.4880,-1.0000,-49.69,68.89,-11.72
2026-05-08T15:54:47.857Z,-0.1177,-0.9682,-0.3247,-0.0084,-0.0065,-0.0297,55.59120597547465,37.671920075761314,171.4880,-1.0000,-49.71,68.86,-11.74
2026-05-08T15:54:47.867Z,-0.1354,-0.9610,-0.3081,-0.0506,-0.0184,-0.0557,55.59120597547465,37.671920075761314,171.4880,-1.0000,-49.75,68.82,-11.77
2026-05-08T15:54:47.878Z,-0.1265,-0.9556,-0.2954,-0.1339,-0.0878,-0.0825,55.59120597547465,37.671920075761314,171.4880,-1.0000,-49.80,68.78,-11.78
2026-05-08T15:54:47.887Z,-0.1031,-0.9488,-0.3218,-0.2110,-0.1466,-0.0984,55.59120597547465,37.671920075761314,171.4880,-1.0000,-49.87,68.74,-11.76
2026-05-08T15:54:47.898Z,-0.0789,-0.9504,-0.3598,-0.2404,-0.1411,-0.0832,55.59120597547465,37.671920075761314,171.4880,-1.0000,-49.95,68.70,-11.73
2026-05-08T15:54:47.907Z,-0.0562,-0.9609,-0.3606,-0.2494,-0.1174,-0.0557,55.59120597547465,37.671920075761314,171.4880,-1.0000,-50.05,68.66,-11.68
2026-05-08T15:54:47.917Z,-0.0268,-0.9690,-0.3468,-0.2763,-0.0772,-0.0008,55.59120597547465,37.671920075761314,171.4880,-1.0000,-50.15,68.61,-11.62
2026-05-08T15:54:47.927Z,0.0202,-0.9812,-0.3404,-0.2970,-0.0634,0.1223,55.59120597547465,37.671920075761314,171.4880,-1.0000,-50.25,68.55,-11.57
2026-05-08T15:54:47.937Z,-0.0006,-0.9982,-0.3402,-0.3167,-0.0231,0.2009,55.59120597547465,37.671920075761314,171.4880,-1.0000,-50.33,68.46,-11.54
2026-05-08T15:54:47.948Z,0.0032,-1.0078,-0.3057,-0.3829,0.0431,0.2869,55.59120597547465,37.671920075761314,171.4880,-1.0000,-50.38,68.35,-11.53
2026-05-08T15:54:47.957Z,0.0032,-1.0078,-0.3057,-0.4371,0.0858,0.3722,55.59120597547465,37.671920075761314,171.4880,-1.0000,-50.40,68.22,-11.55
2026-05-08T15:54:47.968Z,0.0076,-1.0318,-0.3278,-0.4603,0.1340,0.4466,55.59120597547465,37.671920075761314,171.4880,-1.0000,-50.36,68.05,-11.61
2026-05-08T15:54:47.977Z,-0.0110,-1.0272,-0.3344,-0.4746,0.1565,0.4954,55.59120597547465,37.671920075761314,171.4880,-1.0000,-50.25,67.86,-11.73
2026-05-08T15:54:47.987Z,-0.0279,-1.0149,-0.3378,-0.4996,0.1359,0.5279,55.59120597547465,37.671920075761314,171.4880,-1.0000,-50.07,67.64,-11.90
2026-05-08T15:54:47.998Z,-0.0465,-1.0016,-0.3396,-0.5349,0.1202,0.5587,55.59120597547465,37.671920075761314,171.4880,-1.0000,-49.81,67.39,-12.12
2026-05-08T15:54:48.008Z,-0.0768,-0.9862,-0.3400,-0.5931,0.0691,0.5710,55.59120597547465,37.671920075761314,171.4880,-1.0000,-49.47,67.12,-12.41
2026-05-08T15:54:48.018Z,-0.0974,-0.9564,-0.3557,-0.6551,0.0324,0.5753,55.59120597547465,37.671920075761314,171.4880,-1.0000,-49.07,66.82,-12.74
2026-05-08T15:54:48.028Z,-0.0996,-0.9237,-0.3629,-0.6968,0.0871,0.5831,55.59120597547465,37.671920075761314,171.4880,-1.0000,-48.61,66.50,-13.12
2026-05-08T15:54:48.038Z,-0.1140,-0.9052,-0.3567,-0.7275,0.1400,0.6036,55.59120597547465,37.671920075761314,171.4880,-1.0000,-48.12,66.14,-13.52
2026-05-08T15:54:48.048Z,-0.1577,-0.8868,-0.3342,-0.8222,0.0809,0.5897,55.59120597547465,37.671920075761314,171.4880,-1.0000,-47.60,65.75,-13.93
2026-05-08T15:54:48.057Z,-0.1577,-0.8868,-0.3342,-0.9325,0.0533,0.4871,55.59120597547465,37.671920075761314,171.4880,-1.0000,-47.09,65.34,-14.35
2026-05-08T15:54:48.068Z,-0.1480,-0.9348,-0.3983,-0.9714,0.0617,0.4111,55.59120597547465,37.671920075761314,171.4880,-1.0000,-46.60,64.89,-14.74
2026-05-08T15:54:48.078Z,-0.1338,-0.9618,-0.4668,-0.9513,0.0601,0.4365,55.59120597547465,37.671920075761314,171.4880,-1.0000,-46.15,64.42,-15.10
2026-05-08T15:54:48.087Z,-0.1338,-0.9618,-0.4668,-0.9111,0.0332,0.5085,55.59120597547465,37.671920075761314,171.4880,-1.0000,-45.73,63.92,-15.44
2026-05-08T15:54:48.098Z,-0.1304,-0.8813,-0.5089,-0.8801,0.0094,0.5374,55.59120597547465,37.671920075761314,171.4880,-1.0000,-45.34,63.40,-15.75
2026-05-08T15:54:48.108Z,-0.1146,-0.8588,-0.5408,-0.8339,0.0142,0.5117,55.59120597547465,37.671920075761314,171.4880,-1.0000,-44.97,62.86,-16.05
2026-05-08T15:54:48.118Z,-0.0949,-0.8756,-0.5691,-0.7567,-0.0057,0.4866,55.59120597547465,37.671920075761314,171.4880,-1.0000,-44.64,62.31,-16.32
2026-05-08T15:54:48.128Z,-0.0955,-0.9214,-0.5737,-0.6426,0.0307,0.5438,55.59120597547465,37.671920075761314,171.4880,-1.0000,-44.33,61.76,-16.57
2026-05-08T15:54:48.137Z,-0.0955,-0.9214,-0.5737,-0.5200,0.0164,0.6319,55.59120597547465,37.671920075761314,171.4880,-1.0000,-44.02,61.22,-16.81
2026-05-08T15:54:48.147Z,-0.1742,-0.8982,-0.5746,-0.4645,-0.0078,0.6739,55.59120597547465,37.671920075761314,171.4880,-1.0000,-43.71,60.69,-17.07
2026-05-08T15:54:48.158Z,-0.2492,-0.8008,-0.5407,-0.4705,-0.0073,0.6229,55.59120597547465,37.671920075761314,171.4880,-1.0000,-43.39,60.19,-17.34
2026-05-08T15:54:48.168Z,-0.2798,-0.7803,-0.5384,-0.5075,-0.0595,0.5122,55.59120597547465,37.671920075761314,171.4880,-1.0000,-43.04,59.70,-17.63
2026-05-08T15:54:48.179Z,-0.2977,-0.7555,-0.5310,-0.5465,-0.1542,0.3722,55.59120597547465,37.671920075761314,171.4880,-1.0000,-42.69,59.24,-17.94
2026-05-08T15:54:48.187Z,-0.2977,-0.7555,-0.5310,-0.5811,-0.2452,0.2192,55.59120597547465,37.671920075761314,171.4880,-1.0000,-42.34,58.80,-18.25
2026-05-08T15:54:48.197Z,-0.2187,-0.7493,-0.4752,-0.5853,-0.2719,0.0926,55.59120597547465,37.671920075761314,171.4880,-1.0000,-42.04,58.38,-18.54
2026-05-08T15:54:48.208Z,-0.1772,-0.7724,-0.4988,-0.5483,-0.2344,0.0468,55.59120597547465,37.671920075761314,171.4880,-1.0000,-41.77,57.99,-18.82
2026-05-08T15:54:48.219Z,-0.1883,-0.7865,-0.5124,-0.5029,-0.1239,0.0785,55.59120597547465,37.671920075761314,171.4880,-1.0000,-41.55,57.62,-19.07
2026-05-08T15:54:48.227Z,-0.1883,-0.7865,-0.5124,-0.4553,0.0232,0.1432,55.59120597547465,37.671920075761314,171.4880,-1.0000,-41.37,57.27,-19.29
2026-05-08T15:54:48.237Z,-0.2116,-0.7846,-0.5257,-0.3856,0.1719,0.1999,55.59120597547465,37.671920075761314,171.4880,-1.0000,-41.22,56.93,-19.48
2026-05-08T15:54:48.249Z,-0.2031,-0.7738,-0.5629,-0.2807,0.2790,0.2235,55.59120597547465,37.671920075761314,171.4880,-1.0000,-41.12,56.61,-19.61
2026-05-08T15:54:48.257Z,-0.2031,-0.7738,-0.5629,-0.1650,0.3287,0.2055,55.59120597547465,37.671920075761314,171.4880,-1.0000,-41.06,56.32,-19.69
2026-05-08T15:54:48.268Z,-0.2149,-0.7820,-0.5636,-0.0746,0.3535,0.1810,55.59120597547465,37.671920075761314,171.4880,-1.0000,-41.02,56.05,-19.73
2026-05-08T15:54:48.277Z,-0.2298,-0.7850,-0.5485,-0.0288,0.3734,0.1580,55.59120597547465,37.671920075761314,171.4880,-1.0000,-41.00,55.81,-19.73
2026-05-08T15:54:48.287Z,-0.2406,-0.7877,-0.5292,-0.0378,0.3517,0.1339,55.59120597547465,37.671920075761314,171.4880,-1.0000,-40.97,55.60,-19.70
2026-05-08T15:54:48.298Z,-0.2514,-0.7942,-0.4808,-0.1067,0.2991,0.1050,55.59120597547465,37.671920075761314,171.4880,-1.0000,-40.92,55.42,-19.65
2026-05-08T15:54:48.309Z,-0.2456,-0.7909,-0.4745,-0.2202,0.2576,0.0796,55.59120597547465,37.671920075761314,171.4880,-1.0000,-40.86,55.26,-19.58
2026-05-08T15:54:48.318Z,-0.2456,-0.7909,-0.4745,-0.3528,0.2111,0.0457,55.59120597547465,37.671920075761314,171.4880,-1.0000,-40.79,55.12,-19.50
2026-05-08T15:54:48.327Z,-0.2504,-0.7869,-0.4660,-0.4722,0.1852,0.0389,55.59120597547465,37.671920075761314,171.4880,-1.0000,-40.72,54.98,-19.39
2026-05-08T15:54:48.338Z,-0.2282,-0.7770,-0.4725,-0.5472,0.1769,0.0473,55.59120597547465,37.671920075761314,171.4880,-1.0000,-40.67,54.83,-19.28
2026-05-08T15:54:48.347Z,-0.2169,-0.7737,-0.4986,-0.5713,0.1717,0.0433,55.59120597547465,37.671920075761314,171.4880,-1.0000,-40.64,54.68,-19.15
2026-05-08T15:54:48.357Z,-0.2305,-0.7768,-0.5260,-0.5501,0.1869,0.0497,55.59120597547465,37.671920075761314,171.4880,-1.0000,-40.64,54.51,-19.00
2026-05-08T15:54:48.367Z,-0.2146,-0.7988,-0.5551,-0.4936,0.2006,0.0446,55.59120597547465,37.671920075761314,171.4880,-1.0000,-40.66,54.33,-18.84
2026-05-08T15:54:48.377Z,-0.2223,-0.8183,-0.5815,-0.4380,0.2134,0.0110,55.59120597547465,37.671920075761314,171.4880,-1.0000,-40.70,54.12,-18.67
2026-05-08T15:54:48.387Z,-0.2312,-0.8179,-0.5800,-0.3959,0.1842,-0.0463,55.59120597547465,37.671920075761314,171.4880,-1.0000,-40.78,53.90,-18.49
2026-05-08T15:54:48.398Z,-0.2249,-0.8223,-0.5840,-0.3914,0.1661,-0.0785,55.59120597547465,37.671920075761314,171.4880,-1.0000,-40.88,53.66,-18.30
2026-05-08T15:54:48.407Z,-0.1821,-0.8543,-0.5911,-0.4993,0.2081,-0.1051,55.59120597547465,37.671920075761314,171.4880,-1.0000,-41.00,53.41,-18.09
2026-05-08T15:54:48.417Z,-0.1326,-0.8680,-0.5709,-0.7304,0.2274,-0.1004,55.59120597547465,37.671920075761314,171.4880,-1.0000,-41.15,53.14,-17.87
2026-05-08T15:54:48.428Z,-0.0664,-0.8582,-0.5303,-0.9050,0.0843,0.0499,55.59120597547465,37.671920075761314,171.4880,-1.0000,-41.31,52.85,-17.63
2026-05-08T15:54:48.437Z,-0.0279,-0.8684,-0.5605,-1.0034,-0.0133,0.2401,55.59120597547465,37.671920075761314,171.4880,-1.0000,-41.47,52.54,-17.41
2026-05-08T15:54:48.448Z,-0.0986,-0.8681,-0.5682,-1.0155,-0.0040,0.4003,55.59120597547465,37.671920075761314,171.4880,-1.0000,-41.62,52.20,-17.21
2026-05-08T15:54:48.457Z,-0.1534,-0.8583,-0.6019,-0.9540,0.0229,0.4638,55.59120597547465,37.671920075761314,171.4880,-1.0000,-41.74,51.82,-17.04
2026-05-08T15:54:48.467Z,-0.2034,-0.8311,-0.6452,-0.8365,0.0360,0.4435,55.59120597547465,37.671920075761314,171.4880,-1.0000,-41.84,51.42,-16.89
2026-05-08T15:54:48.478Z,-0.2740,-0.8040,-0.6535,-0.7017,0.0533,0.3987,55.59120597547465,37.671920075761314,171.4880,-1.0000,-41.91,51.00,-16.78
2026-05-08T15:54:48.488Z,-0.3108,-0.7497,-0.6043,-0.5778,0.1414,0.3323,55.59120597547465,37.671920075761314,171.4880,-1.0000,-41.95,50.55,-16.70
2026-05-08T15:54:48.497Z,-0.3311,-0.6630,-0.5542,-0.4864,0.2528,0.2271,55.59120597547465,37.671920075761314,171.4880,-1.0000,-41.96,50.10,-16.64
2026-05-08T15:54:48.508Z,-0.3305,-0.6213,-0.5333,-0.5000,0.1196,0.1264,55.59120597547465,37.671920075761314,171.4880,-1.0000,-41.95,49.63,-16.59
2026-05-08T15:54:48.518Z,-0.2671,-0.7507,-0.5852,-0.8379,0.1847,0.0853,55.59120597547465,37.671920075761314,171.4880,-1.0000,-41.92,49.17,-16.56
2026-05-08T15:54:48.528Z,-0.1498,-0.8181,-0.6448,-1.5047,-0.0163,-0.0521,55.59120597547465,37.671920075761314,171.4880,-1.0000,-41.89,48.68,-16.54
2026-05-08T15:54:48.538Z,-0.1161,-0.6780,-0.5089,-1.8447,-0.2849,-0.0821,55.59120597547465,37.671920075761314,171.4880,-1.0000,-41.90,48.15,-16.50
2026-05-08T15:54:48.548Z,-0.1469,-0.6178,-0.5767,-1.8703,-0.1753,-0.1101,55.59120597547465,37.671920075761314,171.4880,-1.0000,-41.95,47.58,-16.45
2026-05-08T15:54:48.558Z,-0.2637,-0.7453,-0.7002,-1.7170,0.0902,-0.0930,55.59120597547465,37.671920075761314,171.4880,-1.0000,-42.07,46.98,-16.35
2026-05-08T15:54:48.567Z,-0.2647,-0.7468,-0.7429,-1.4589,0.3560,-0.0423,55.59120597547465,37.671920075761314,171.4880,-1.0000,-42.24,46.35,-16.20
2026-05-08T15:54:48.577Z,-0.2336,-0.6707,-0.7885,-1.1533,0.5081,-0.0104,55.59120597547465,37.671920075761314,171.4880,-1.0000,-42.45,45.69,-16.00
2026-05-08T15:54:48.588Z,-0.2362,-0.6647,-0.8202,-0.8029,0.5136,0.0282,55.59120597547465,37.671920075761314,171.4880,-1.0000,-42.70,45.02,-15.75
2026-05-08T15:54:48.598Z,-0.2096,-0.6415,-0.8655,-0.4379,0.4195,0.0509,55.59120597547465,37.671920075761314,171.4880,-1.0000,-42.96,44.35,-15.47
2026-05-08T15:54:48.608Z,-0.2013,-0.6062,-0.8839,-0.1228,0.3044,0.0316,55.59120597547465,37.671920075761314,171.4880,-1.0000,-43.23,43.69,-15.18
2026-05-08T15:54:48.617Z,-0.2142,-0.5789,-0.8715,0.0861,0.2422,-0.0513,55.59120597547465,37.671920075761314,171.4880,-1.0000,-43.49,43.07,-14.89
2026-05-08T15:54:48.628Z,-0.2248,-0.5559,-0.8554,0.1485,0.1523,-0.1709,55.59120597547465,37.671920075761314,171.4880,-1.0000,-43.73,42.52,-14.61
2026-05-08T15:54:48.637Z,-0.2181,-0.5375,-0.8239,0.0957,-0.0209,-0.2890,55.59120597547465,37.671920075761314,171.4880,-1.0000,-43.93,42.07,-14.34
2026-05-08T15:54:48.647Z,-0.2052,-0.5414,-0.7741,-0.0126,-0.1223,-0.3827,55.59120597547465,37.671920075761314,171.4880,-1.0000,-44.11,41.74,-14.07
2026-05-08T15:54:48.658Z,-0.1976,-0.5750,-0.7440,-0.1081,-0.1470,-0.3954,55.59120597547465,37.671920075761314,171.4880,-1.0000,-44.28,41.50,-13.82
2026-05-08T15:54:48.667Z,-0.1591,-0.6117,-0.7339,-0.1689,-0.1642,-0.3499,55.59120597547465,37.671920075761314,171.4880,-1.0000,-44.43,41.35,-13.61
2026-05-08T15:54:48.677Z,-0.1565,-0.6290,-0.7472,-0.2032,-0.1852,-0.3026,55.59120597547465,37.671920075761314,171.4880,-1.0000,-44.58,41.26,-13.43
2026-05-08T15:54:48.688Z,-0.1807,-0.6321,-0.7630,-0.2268,-0.2048,-0.2748,55.59120597547465,37.671920075761314,171.4880,-1.0000,-44.74,41.22,-13.28
2026-05-08T15:54:48.697Z,-0.1954,-0.6215,-0.7660,-0.2509,-0.1910,-0.2758,55.59120597547465,37.671920075761314,171.4880,-1.0000,-44.92,41.20,-13.16
2026-05-08T15:54:48.708Z,-0.2048,-0.6163,-0.7696,-0.2712,-0.1719,-0.2971,55.59120597547465,37.671920075761314,171.4880,-1.0000,-45.11,41.19,-13.06
2026-05-08T15:54:48.717Z,-0.2130,-0.6204,-0.7827,-0.2747,-0.1836,-0.3384,55.59120597547465,37.671920075761314,171.4880,-1.0000,-45.34,41.17,-12.97
2026-05-08T15:54:48.728Z,-0.2224,-0.6247,-0.7913,-0.2568,-0.1906,-0.3826,55.59120597547465,37.671920075761314,171.4880,-1.0000,-45.59,41.13,-12.88
2026-05-08T15:54:48.737Z,-0.2180,-0.6272,-0.7982,-0.2272,-0.2039,-0.4160,55.59120597547465,37.671920075761314,171.4880,-1.0000,-45.86,41.07,-12.80
2026-05-08T15:54:48.747Z,-0.1989,-0.6278,-0.7921,-0.1943,-0.2181,-0.4316,55.59120597547465,37.671920075761314,171.4880,-1.0000,-46.13,41.00,-12.71
2026-05-08T15:54:48.757Z,-0.1830,-0.6320,-0.7804,-0.1578,-0.2065,-0.4275,55.59120597547465,37.671920075761314,171.4880,-1.0000,-46.42,40.92,-12.63
2026-05-08T15:54:48.767Z,-0.1751,-0.6428,-0.7803,-0.1190,-0.1449,-0.3741,55.59120597547465,37.671920075761314,171.4880,-1.0000,-46.70,40.84,-12.55
2026-05-08T15:54:48.778Z,-0.1481,-0.6524,-0.7854,-0.0950,-0.0871,-0.2799,55.59120597547465,37.671920075761314,171.4880,-1.0000,-46.98,40.77,-12.46
2026-05-08T15:54:48.788Z,-0.1325,-0.6575,-0.7838,-0.0872,-0.0301,-0.1772,55.59120597547465,37.671920075761314,171.4880,-1.0000,-47.26,40.70,-12.38
2026-05-08T15:54:48.797Z,-0.1340,-0.6612,-0.7794,-0.1019,0.0529,-0.0925,55.59120597547465,37.671920075761314,171.4880,-1.0000,-47.52,40.64,-12.29
2026-05-08T15:54:48.807Z,-0.1429,-0.6577,-0.7659,-0.0894,0.1053,-0.0471,55.59120597547465,37.671920075761314,171.4880,-1.0000,-47.76,40.58,-12.20
2026-05-08T15:54:48.817Z,-0.1438,-0.6549,-0.7603,-0.0529,0.0964,-0.0393,55.59120597547465,37.671920075761314,171.4880,-1.0000,-47.98,40.53,-12.10
2026-05-08T15:54:48.827Z,-0.1465,-0.6498,-0.7588,-0.0387,0.0587,-0.0705,55.59120597547465,37.671920075761314,171.4880,-1.0000,-48.18,40.49,-12.01
2026-05-08T15:54:48.837Z,-0.1616,-0.6530,-0.7497,-0.0322,0.0228,-0.1103,55.59120597547465,37.671920075761314,171.4880,-1.0000,-48.34,40.46,-11.92
2026-05-08T15:54:48.848Z,-0.1559,-0.6550,-0.7503,-0.0355,-0.0094,-0.1230,55.59120597547465,37.671920075761314,171.4880,-1.0000,-48.48,40.44,-11.84
2026-05-08T15:54:48.858Z,-0.1517,-0.6540,-0.7477,-0.0476,-0.0180,-0.1139,55.59120597547465,37.671920075761314,171.4880,-1.0000,-48.60,40.41,-11.76
2026-05-08T15:54:48.867Z,-0.1567,-0.6604,-0.7490,-0.0586,-0.0103,-0.0997,55.59120597547465,37.671920075761314,171.4880,-1.0000,-48.69,40.39,-11.69
2026-05-08T15:54:48.879Z,-0.1645,-0.6548,-0.7439,-0.0598,0.0063,-0.0870,55.59120597547465,37.671920075761314,171.4880,-1.0000,-48.77,40.37,-11.62
2026-05-08T15:54:48.887Z,-0.1645,-0.6548,-0.7439,-0.0410,0.0219,-0.0843,55.59120597547465,37.671920075761314,171.4880,-1.0000,-48.83,40.35,-11.56
2026-05-08T15:54:48.898Z,-0.1638,-0.6499,-0.7443,-0.0191,0.0284,-0.0941,55.59120597547465,37.671920075761314,171.4880,-1.0000,-48.89,40.33,-11.50
2026-05-08T15:54:48.908Z,-0.1669,-0.6498,-0.7396,0.0021,0.0304,-0.0970,55.59120597547465,37.671920075761314,171.4880,-1.0000,-48.94,40.32,-11.44
2026-05-08T15:54:48.917Z,-0.1630,-0.6486,-0.7366,0.0073,0.0120,-0.0970,55.59120597547465,37.671920075761314,171.4880,-1.0000,-49.00,40.31,-11.38
2026-05-08T15:54:48.929Z,-0.1640,-0.6471,-0.7283,-0.0169,-0.0194,-0.0924,55.59120597547465,37.671920075761314,171.4880,-1.0000,-49.07,40.31,-11.33
2026-05-08T15:54:48.937Z,-0.1656,-0.6484,-0.7292,-0.0574,-0.0546,-0.0793,55.59120597547465,37.671920075761314,171.4880,-1.0000,-49.13,40.30,-11.28
2026-05-08T15:54:48.948Z,-0.1662,-0.6499,-0.7354,-0.1078,-0.0786,-0.0588,55.59120597547465,37.671920075761314,171.4880,-1.0000,-49.19,40.29,-11.24
2026-05-08T15:54:48.958Z,-0.1673,-0.6507,-0.7370,-0.1612,-0.0743,-0.0381,55.59120597547465,37.671920075761314,171.4880,-1.0000,-49.24,40.28,-11.20
2026-05-08T15:54:48.967Z,-0.1699,-0.6462,-0.7360,-0.1946,-0.0446,-0.0177,55.59120597547465,37.671920075761314,171.4880,-1.0000,-49.30,40.26,-11.17
2026-05-08T15:54:48.979Z,-0.1699,-0.6424,-0.7460,-0.1935,-0.0158,-0.0104,55.59120597547465,37.671920075761314,171.4880,-1.0000,-49.34,40.22,-11.14
2026-05-08T15:54:48.987Z,-0.1706,-0.6425,-0.7665,-0.1582,0.0096,-0.0110,55.59120597547465,37.671920075761314,171.4880,-1.0000,-49.39,40.18,-11.12
2026-05-08T15:54:48.998Z,-0.1704,-0.6426,-0.7834,-0.0940,0.0144,-0.0133,55.59120597547465,37.671920075761314,171.4880,-1.0000,-49.43,40.14,-11.10
2026-05-08T15:54:49.008Z,-0.1704,-0.6366,-0.7913,-0.0254,0.0160,-0.0152,55.59120597547465,37.671920075761314,171.4880,-1.0000,-49.47,40.09,-11.08
2026-05-08T15:54:49.017Z,-0.1719,-0.6343,-0.7966,0.0360,0.0165,-0.0176,55.59120597547465,37.671920075761314,171.4880,-1.0000,-49.50,40.04,-11.07
2026-05-08T15:54:49.028Z,-0.1687,-0.6352,-0.7974,0.0836,0.0058,-0.0152,55.59120597547465,37.671920075761314,171.4880,-1.0000,-49.52,39.99,-11.06
2026-05-08T15:54:49.037Z,-0.1700,-0.6384,-0.7885,0.0929,-0.0109,-0.0097,55.59120597547465,37.671920075761314,171.4880,-1.0000,-49.54,39.95,-11.06
2026-05-08T15:54:49.048Z,-0.1696,-0.6440,-0.7729,0.0750,-0.0040,-0.0050,55.59120597547465,37.671920075761314,171.4880,-1.0000,-49.55,39.92,-11.05
2026-05-08T15:54:49.058Z,-0.1658,-0.6489,-0.7622,0.0305,-0.0058,-0.0066,55.59120597547465,37.671920075761314,171.4880,-1.0000,-49.55,39.90,-11.05
2026-05-08T15:54:49.067Z,-0.1668,-0.6564,-0.7519,-0.0180,-0.0021,-0.0115,55.59120597547465,37.671920075761314,171.4880,-1.0000,-49.55,39.89,-11.04
2026-05-08T15:54:49.078Z,-0.1590,-0.6577,-0.7496,-0.0535,0.0015,-0.0103,55.59120597547465,37.671920075761314,171.4880,-1.0000,-49.55,39.88,-11.04
2026-05-08T15:54:49.088Z,-0.1513,-0.6516,-0.7503,-0.0591,0.0063,-0.0001,55.59120597547465,37.671920075761314,171.4880,-1.0000,-49.54,39.89,-11.03
2026-05-08T15:54:49.097Z,-0.1449,-0.6477,-0.7596,-0.0397,0.0065,0.0084,55.59120597547465,37.671920075761314,171.4880,-1.0000,-49.53,39.89,-11.03
2026-05-08T15:54:49.107Z,-0.1491,-0.6475,-0.7682,-0.0009,0.0115,0.0128,55.59120597547465,37.671920075761314,171.4880,-1.0000,-49.52,39.90,-11.03
2026-05-08T15:54:49.117Z,-0.1590,-0.6428,-0.7773,0.0359,0.0105,0.0149,55.59120597547465,37.671920075761314,171.4880,-1.0000,-49.51,39.91,-11.03
2026-05-08T15:54:49.128Z,-0.1609,-0.6391,-0.7747,0.0512,-0.0054,0.0176,55.59120597547465,37.671920075761314,171.4880,-1.0000,-49.50,39.92,-11.03
2026-05-08T15:54:49.137Z,-0.1598,-0.6400,-0.7610,0.0358,-0.0124,0.0086,55.59120597547465,37.671920075761314,171.4880,-1.0000,-49.48,39.93,-11.04
2026-05-08T15:54:49.147Z,-0.1612,-0.6442,-0.7621,0.0121,-0.0138,-0.0031,55.59120597547465,37.671920075761314,171.4880,-1.0000,-49.47,39.93,-11.04
2026-05-08T15:54:49.161Z,-0.1621,-0.6478,-0.7635,0.0121,-0.0138,-0.0031,55.59120597547465,37.671920075761314,171.4880,-1.0000,-49.47,39.93,-11.04
2026-05-08T15:54:49.167Z,-0.1640,-0.6501,-0.7639,0.0069,-0.0091,-0.0151,55.59120597547465,37.671920075761314,171.4880,-1.0000,-49.44,39.93,-11.05
2026-05-08T15:54:49.178Z,-0.1675,-0.6534,-0.7692,0.0366,0.0124,-0.0081,55.59120597547465,37.671920075761314,171.4880,-1.0000,-49.43,39.93,-11.05
2026-05-08T15:54:49.187Z,-0.1672,-0.6535,-0.7698,0.0526,0.0321,0.0052,55.59120597547465,37.671920075761314,171.4880,-1.0000,-49.41,39.94,-11.06
2026-05-08T15:54:49.197Z,-0.1607,-0.6476,-0.7557,0.0606,0.0491,0.0228,55.59120597547465,37.671920075761314,171.4880,-1.0000,-49.40,39.95,-11.06
2026-05-08T15:54:49.207Z,-0.1527,-0.6478,-0.7524,0.0585,0.0457,0.0353,55.59120597547465,37.671920075761314,171.4880,-1.0000,-49.38,39.97,-11.07
2026-05-08T15:54:49.217Z,-0.1526,-0.6510,-0.7516,0.0416,0.0426,0.0439,55.59120597547465,37.671920075761314,171.4880,-1.0000,-49.36,39.99,-11.07
2026-05-08T15:54:49.228Z,-0.1589,-0.6504,-0.7432,0.0202,0.0451,0.0477,55.59120597547465,37.671920075761314,171.4880,-1.0000,-49.33,40.01,-11.07
2026-05-08T15:54:49.237Z,-0.1683,-0.6442,-0.7347,-0.0003,0.0474,0.0457,55.59120597547465,37.671920075761314,171.4880,-1.0000,-49.31,40.03,-11.07
2026-05-08T15:54:49.247Z,-0.1761,-0.6419,-0.7339,-0.0235,0.0325,0.0373,55.59120597547465,37.671920075761314,171.4880,-1.0000,-49.28,40.04,-11.07
2026-05-08T15:54:49.257Z,-0.1839,-0.6481,-0.7295,-0.0469,0.0233,0.0201,55.59120597547465,37.671920075761314,171.4880,-1.0000,-49.25,40.05,-11.07
2026-05-08T15:54:49.268Z,-0.1789,-0.6526,-0.7343,-0.0797,0.0201,0.0034,55.59120597547465,37.671920075761314,171.4880,-1.0000,-49.23,40.06,-11.07
2026-05-08T15:54:49.278Z,-0.1743,-0.6566,-0.7350,-0.1038,0.0073,-0.0130,55.59120597547465,37.671920075761314,171.4880,-1.0000,-49.20,40.06,-11.06
2026-05-08T15:54:49.287Z,-0.1670,-0.6591,-0.7404,-0.1051,-0.0092,-0.0299,55.59120597547465,37.671920075761314,171.4880,-1.0000,-49.17,40.06,-11.06
2026-05-08T15:54:49.297Z,-0.1670,-0.6584,-0.7529,-0.0956,-0.0138,-0.0491,55.59120597547465,37.671920075761314,171.4880,-1.0000,-49.15,40.04,-11.05
2026-05-08T15:54:49.308Z,-0.1683,-0.6581,-0.7611,-0.0868,-0.0108,-0.0589,55.59120597547465,37.671920075761314,171.4880,-1.0000,-49.14,40.02,-11.04
2026-05-08T15:54:49.317Z,-0.1689,-0.6524,-0.7627,-0.0826,-0.0087,-0.0623,55.59120597547465,37.671920075761314,171.4880,-1.0000,-49.14,39.99,-11.03
2026-05-08T15:54:49.328Z,-0.1674,-0.6535,-0.7618,-0.0781,0.0121,-0.0490,55.59120597547465,37.671920075761314,171.4880,-1.0000,-49.15,39.95,-11.01
2026-05-08T15:54:49.338Z,-0.1597,-0.6584,-0.7612,-0.0760,0.0418,-0.0238,55.59120597547465,37.671920075761314,171.4880,-1.0000,-49.16,39.91,-11.00
2026-05-08T15:54:49.347Z,-0.1522,-0.6559,-0.7624,-0.0739,0.0639,-0.0044,55.59120597547465,37.671920075761314,171.4880,-1.0000,-49.18,39.87,-10.97
2026-05-08T15:54:49.358Z,-0.1516,-0.6503,-0.7622,-0.0700,0.0816,-0.0062,55.59120597547465,37.671920075761314,171.4880,-1.0000,-49.20,39.83,-10.95
2026-05-08T15:54:49.368Z,-0.1520,-0.6436,-0.7691,-0.0517,0.0794,-0.0053,55.59120597547465,37.671920075761314,171.4880,-1.0000,-49.22,39.79,-10.92
2026-05-08T15:54:49.380Z,-0.1417,-0.6322,-0.7851,-0.0170,0.0578,-0.0019,55.59120597547465,37.671920075761314,171.4880,-1.0000,-49.25,39.75,-10.88
2026-05-08T15:54:49.388Z,-0.1417,-0.6322,-0.7851,0.0212,0.0323,0.0026,55.59120597547465,37.671920075761314,171.4880,-1.0000,-49.27,39.71,-10.85
2026-05-08T15:54:49.397Z,-0.1505,-0.6303,-0.7801,0.0386,0.0119,0.0032,55.59120597547465,37.671920075761314,171.4880,-1.0000,-49.28,39.69,-10.81
2026-05-08T15:54:49.407Z,-0.1611,-0.6306,-0.7628,0.0293,0.0281,0.0023,55.59120597547465,37.671920075761314,171.4880,-1.0000,-49.29,39.67,-10.78
2026-05-08T15:54:49.419Z,-0.1635,-0.6345,-0.7558,0.0003,0.0383,-0.0041,55.59120597547465,37.671920075761314,171.4880,-1.0000,-49.29,39.65,-10.75
2026-05-08T15:54:49.430Z,-0.1552,-0.6428,-0.7581,-0.0333,0.0265,-0.0164,55.59120597547465,37.671920075761314,171.4880,-1.0000,-49.29,39.64,-10.73
2026-05-08T15:54:49.437Z,-0.1552,-0.6428,-0.7581,-0.0644,0.0050,-0.0318,55.59120597547465,37.671920075761314,171.4880,-1.0000,-49.28,39.63,-10.70
2026-05-08T15:54:49.447Z,-0.1546,-0.6465,-0.7611,-0.0930,-0.0022,-0.0341,55.59120597547465,37.671920075761314,171.4880,-1.0000,-49.28,39.62,-10.67
2026-05-08T15:54:49.457Z,-0.1541,-0.6468,-0.7609,-0.1067,0.0157,-0.0271,55.59120597547465,37.671920075761314,171.4880,-1.0000,-49.28,39.60,-10.65
2026-05-08T15:54:49.467Z,-0.1552,-0.6447,-0.7733,-0.0886,0.0201,-0.0163,55.59120597547465,37.671920075761314,171.4880,-1.0000,-49.28,39.59,-10.63
2026-05-08T15:54:49.478Z,-0.1556,-0.6442,-0.7827,-0.0553,0.0220,-0.0038,55.59120597547465,37.671920075761314,171.4880,-1.0000,-49.28,39.57,-10.61
2026-05-08T15:54:49.487Z,-0.1491,-0.6417,-0.7881,-0.0166,0.0202,0.0080,55.59120597547465,37.671920075761314,171.4880,-1.0000,-49.28,39.56,-10.60
2026-05-08T15:54:49.498Z,-0.1536,-0.6360,-0.7904,0.0213,0.0189,0.0124,55.59120597547465,37.671920075761314,171.4880,-1.0000,-49.28,39.54,-10.58
2026-05-08T15:54:49.507Z,-0.1624,-0.6351,-0.7889,0.0480,0.0146,0.0069,55.59120597547465,37.671920075761314,171.4880,-1.0000,-49.28,39.52,-10.56
2026-05-08T15:54:49.518Z,-0.1714,-0.6377,-0.7803,0.0564,0.0176,-0.0037,55.59120597547465,37.671920075761314,171.4880,-1.0000,-49.28,39.50,-10.55
2026-05-08T15:54:49.529Z,-0.1732,-0.6388,-0.7698,0.0522,0.0259,-0.0182,55.59120597547465,37.671920075761314,171.4880,-1.0000,-49.28,39.48,-10.53
2026-05-08T15:54:49.537Z,-0.1689,-0.6387,-0.7667,0.0420,0.0268,-0.0371,55.59120597547465,37.671920075761314,171.4880,-1.0000,-49.28,39.47,-10.52
2026-05-08T15:54:49.547Z,-0.1615,-0.6408,-0.7652,0.0294,0.0294,-0.0402,55.59120597547465,37.671920075761314,171.4880,-1.0000,-49.28,39.47,-10.50
2026-05-08T15:54:49.557Z,-0.1479,-0.6421,-0.7608,0.0117,0.0212,-0.0280,55.59120597547465,37.671920075761314,171.4880,-1.0000,-49.28,39.48,-10.49
2026-05-08T15:54:49.568Z,-0.1400,-0.6422,-0.7519,-0.0184,0.0062,-0.0061,55.59120597547465,37.671920075761314,171.4880,-1.0000,-49.28,39.49,-10.47
2026-05-08T15:54:49.578Z,-0.1416,-0.6416,-0.7500,-0.0418,0.0080,0.0089,55.59120597547465,37.671920075761314,171.4880,-1.0000,-49.27,39.50,-10.46
2026-05-08T15:54:49.587Z,-0.1490,-0.6407,-0.7614,-0.0520,-0.0003,0.0190,55.59120597547465,37.671920075761314,171.4880,-1.0000,-49.27,39.51,-10.45
2026-05-08T15:54:49.598Z,-0.1520,-0.6394,-0.7596,-0.0517,-0.0044,0.0228,55.59120597547465,37.671920075761314,171.4880,-1.0000,-49.26,39.52,-10.44
2026-05-08T15:54:49.608Z,-0.1555,-0.6391,-0.7630,-0.0473,-0.0082,0.0220,55.59120597547465,37.671920075761314,171.4880,-1.0000,-49.26,39.52,-10.44
2026-05-08T15:54:49.618Z,-0.1616,-0.6416,-0.7657,-0.0280,-0.0032,0.0163,55.59120597547465,37.671920075761314,171.4880,-1.0000,-49.25,39.52,-10.43
2026-05-08T15:54:49.628Z,-0.1637,-0.6478,-0.7732,-0.0070,-0.0020,0.0001,55.59120597547465,37.671920075761314,171.4880,-1.0000,-49.25,39.52,-10.42
2026-05-08T15:54:49.639Z,-0.1627,-0.6512,-0.7716,0.0035,-0.0020,-0.0113,55.59120597547465,37.671920075761314,171.4880,-1.0000,-49.25,39.51,-10.42
2026-05-08T15:54:49.647Z,-0.1604,-0.6494,-0.7653,-0.0079,-0.0025,-0.0205,55.59120597547465,37.671920075761314,171.4880,-1.0000,-49.25,39.51,-10.42
2026-05-08T15:54:49.658Z,-0.1522,-0.6494,-0.7624,-0.0256,-0.0002,-0.0154,55.59120597547465,37.671920075761314,171.4880,-1.0000,-49.23,39.48,-10.42
2026-05-08T15:54:49.668Z,-0.1453,-0.6485,-0.7625,-0.0430,-0.0081,-0.0050,55.59120597547465,37.671920075761314,171.4880,-1.0000,-49.23,39.47,-10.43
2026-05-08T15:54:49.678Z,-0.1490,-0.6448,-0.7637,-0.0442,0.0069,0.0063,55.59120597547465,37.671920075761314,171.4880,-1.0000,-49.22,39.45,-10.43
2026-05-08T15:54:49.688Z,-0.1556,-0.6424,-0.7760,-0.0289,0.0125,0.0074,55.59120597547465,37.671920075761314,171.4880,-1.0000,-49.21,39.43,-10.43
2026-05-08T15:54:49.698Z,-0.1622,-0.6346,-0.7816,-0.0043,0.0103,-0.0001,55.59120597547465,37.671920075761314,171.4880,-1.0000,-49.21,39.42,-10.43
2026-05-08T15:54:49.708Z,-0.1608,-0.6272,-0.7849,0.0205,0.0094,-0.0060,55.59120597547465,37.671920075761314,171.4880,-1.0000,-49.20,39.41,-10.43
2026-05-08T15:54:49.718Z,-0.1556,-0.6274,-0.7838,0.0404,0.0069,-0.0086,55.59120597547465,37.671920075761314,171.4880,-1.0000,-49.20,39.41,-10.43
2026-05-08T15:54:49.728Z,-0.1544,-0.6307,-0.7797,0.0552,0.0058,-0.0122,55.59120597547465,37.671920075761314,171.4880,-1.0000,-49.19,39.40,-10.43
2026-05-08T15:54:49.738Z,-0.1569,-0.6360,-0.7754,0.0608,0.0056,-0.0246,55.59120597547465,37.671920075761314,171.4880,-1.0000,-49.19,39.41,-10.43
2026-05-08T15:54:49.748Z,-0.1595,-0.6420,-0.7673,0.0502,0.0048,-0.0328,55.59120597547465,37.671920075761314,171.4880,-1.0000,-49.19,39.41,-10.42
2026-05-08T15:54:49.758Z,-0.1557,-0.6452,-0.7548,0.0252,0.0101,-0.0273,55.59120597547465,37.671920075761314,171.4880,-1.0000,-49.19,39.42,-10.42
2026-05-08T15:54:49.768Z,-0.1480,-0.6463,-0.7489,-0.0024,0.0068,-0.0171,55.59120597547465,37.671920075761314,171.4880,-1.0000,-49.18,39.43,-10.41
2026-05-08T15:54:49.778Z,-0.1475,-0.6461,-0.7457,-0.0330,-0.0029,-0.0046,55.59120597547465,37.671920075761314,171.4880,-1.0000,-49.18,39.44,-10.41
2026-05-08T15:54:49.788Z,-0.1477,-0.6430,-0.7431,-0.0487,0.0028,0.0056,55.59120597547465,37.671920075761314,171.4880,-1.0000,-49.18,39.46,-10.40
2026-05-08T15:54:49.798Z,-0.1530,-0.6417,-0.7537,-0.0454,0.0094,0.0050,55.59120597547465,37.671920075761314,171.4880,-1.0000,-49.18,39.47,-10.40
2026-05-08T15:54:49.807Z,-0.1603,-0.6471,-0.7629,-0.0269,0.0123,0.0023,55.59120597547465,37.671920075761314,171.4880,-1.0000,-49.18,39.48,-10.39
2026-05-08T15:54:49.818Z,-0.1614,-0.6496,-0.7667,-0.0134,0.0098,-0.0035,55.59120597547465,37.671920075761314,171.4880,-1.0000,-49.18,39.48,-10.38
2026-05-08T15:54:49.828Z,-0.1581,-0.6444,-0.7663,-0.0122,0.0009,-0.0101,55.59120597547465,37.671920075761314,171.4880,-1.0000,-49.17,39.48,-10.38
2026-05-08T15:54:49.838Z,-0.1554,-0.6426,-0.7676,-0.0091,-0.0006,-0.0131,55.59120597547465,37.671920075761314,171.4880,-1.0000,-49.17,39.48,-10.37
2026-05-08T15:54:49.847Z,-0.1535,-0.6437,-0.7723,-0.0021,-0.0039,-0.0110,55.59120597547465,37.671920075761314,171.4880,-1.0000,-49.17,39.48,-10.37
2026-05-08T15:54:49.858Z,-0.1505,-0.6420,-0.7672,0.0024,0.0052,-0.0059,55.59120597547465,37.671920075761314,171.4880,-1.0000,-49.17,39.47,-10.36
2026-05-08T15:54:49.868Z,-0.1511,-0.6387,-0.7680,0.0070,0.0181,-0.0105,55.59120597547465,37.671920075761314,171.4880,-1.0000,-49.16,39.46,-10.36
2026-05-08T15:54:49.878Z,-0.1585,-0.6361,-0.7707,0.0032,0.0129,-0.0144,55.59120597547465,37.671920075761314,171.4880,-1.0000,-49.16,39.45,-10.36
2026-05-08T15:54:49.888Z,-0.1582,-0.6378,-0.7652,-0.0063,0.0113,-0.0155,55.59120597547465,37.671920075761314,171.4880,-1.0000,-49.16,39.44,-10.35
2026-05-08T15:54:49.898Z,-0.1556,-0.6414,-0.7640,-0.0160,0.0140,-0.0016,55.59120597547465,37.671920075761314,171.4880,-1.0000,-49.16,39.44,-10.34
2026-05-08T15:54:49.908Z,-0.1467,-0.6436,-0.7681,-0.0253,0.0093,0.0096,55.59120597547465,37.671920075761314,171.4880,-1.0000,-49.15,39.44,-10.34
2026-05-08T15:54:49.918Z,-0.1436,-0.6417,-0.7680,-0.0310,0.0033,0.0193,55.59120597547465,37.671920075761314,171.4880,-1.0000,-49.15,39.44,-10.33
2026-05-08T15:54:49.929Z,-0.1468,-0.6386,-0.7677,-0.0377,-0.0007,0.0207,55.59120597547465,37.671920075761314,171.4880,-1.0000,-49.15,39.43,-10.33
2026-05-08T15:54:49.938Z,-0.1547,-0.6357,-0.7699,-0.0371,0.0045,0.0188,55.59120597547465,37.671920075761314,171.4880,-1.0000,-49.14,39.43,-10.33
2026-05-08T15:54:49.947Z,-0.1550,-0.6361,-0.7743,-0.0257,0.0055,0.0102,55.59120597547465,37.671920075761314,171.4880,-1.0000,-49.14,39.43,-10.33
2026-05-08T15:54:49.958Z,-0.1565,-0.6380,-0.7817,-0.0039,-0.0039,0.0006,55.59120597547465,37.671920075761314,171.4880,-1.0000,-49.13,39.41,-10.32
2026-05-08T15:54:49.968Z,-0.1570,-0.6380,-0.7843,0.0098,-0.0103,-0.0026,55.59120597547465,37.671920075761314,171.4880,-1.0000,-49.12,39.40,-10.32
2026-05-08T15:54:49.979Z,-0.1589,-0.6395,-0.7825,0.0227,0.0002,-0.0001,55.59120597547465,37.671920075761314,171.4880,-1.0000,-49.11,39.39,-10.32
2026-05-08T15:54:49.987Z,-0.1603,-0.6401,-0.7834,0.0329,0.0037,-0.0076,55.59120597547465,37.671920075761314,171.4880,-1.0000,-49.11,39.39,-10.32
2026-05-08T15:54:49.998Z,-0.1628,-0.6418,-0.7764,0.0414,0.0076,-0.0181,55.59120597547465,37.671920075761314,171.4880,-1.0000,-49.10,39.39,-10.33
2026-05-08T15:54:50.007Z,-0.1597,-0.6408,-0.7707,0.0385,0.0042,-0.0269,55.59120597547465,37.671920075761314,171.4880,-1.0000,-49.08,39.38,-10.33
2026-05-08T15:54:50.018Z,-0.1591,-0.6427,-0.7621,0.0208,0.0062,-0.0248,55.59120597547465,37.671920075761314,171.4880,-1.0000,-49.07,39.38,-10.34
2026-05-08T15:54:50.027Z,-0.1536,-0.6441,-0.7560,-0.0134,0.0078,-0.0113,55.59120597547465,37.671920075761314,171.4880,-1.0000,-49.06,39.39,-10.34
2026-05-08T15:54:50.037Z,-0.1470,-0.6464,-0.7501,-0.0422,0.0053,0.0003,55.59120597547465,37.671920075761314,171.4880,-1.0000,-49.06,39.39,-10.34
2026-05-08T15:54:50.048Z,-0.1493,-0.6460,-0.7550,-0.0579,-0.0022,0.0067,55.59120597547465,37.671920075761314,171.4880,-1.0000,-49.06,39.40,-10.33
2026-05-08T15:54:50.058Z,-0.1520,-0.6400,-0.7633,-0.0523,-0.0012,0.0093,55.59120597547465,37.671920075761314,171.4880,-1.0000,-49.05,39.40,-10.33
2026-05-08T15:54:50.068Z,-0.1525,-0.6359,-0.7704,-0.0285,0.0090,0.0103,55.59120597547465,37.671920075761314,171.4880,-1.0000,-49.05,39.41,-10.33
2026-05-08T15:54:50.079Z,-0.1563,-0.6318,-0.7765,-0.0042,0.0068,0.0089,55.59120597547465,37.671920075761314,171.4880,-1.0000,-49.05,39.41,-10.33
2026-05-08T15:54:50.088Z,-0.1572,-0.6349,-0.7713,0.0077,0.0137,0.0091,55.59120597547465,37.671920075761314,171.4880,-1.0000,-49.05,39.41,-10.33
2026-05-08T15:54:50.097Z,-0.1563,-0.6405,-0.7685,0.0116,0.0146,0.0103,55.59120597547465,37.671920075761314,171.4880,-1.0000,-49.05,39.40,-10.32
2026-05-08T15:54:50.108Z,-0.1550,-0.6431,-0.7656,0.0122,0.0163,0.0101,55.59120597547465,37.671920075761314,171.4880,-1.0000,-49.05,39.40,-10.32
2026-05-08T15:54:50.119Z,-0.1535,-0.6449,-0.7631,0.0142,0.0136,0.0059,55.59120597547465,37.671920075761314,171.4880,-1.0000,-49.04,39.38,-10.32
2026-05-08T15:54:50.129Z,-0.1542,-0.6428,-0.7612,0.0057,0.0103,-0.0017,55.59120597547465,37.671920075761314,171.4880,-1.0000,-49.03,39.38,-10.32
2026-05-08T15:54:50.138Z,-0.1556,-0.6400,-0.7599,0.0006,0.0068,-0.0066,55.59120597547465,37.671920075761314,171.4880,-1.0000,-49.03,39.38,-10.32
2026-05-08T15:54:50.148Z,-0.1527,-0.6395,-0.7644,-0.0008,-0.0017,-0.0140,55.59120597547465,37.671920075761314,171.4880,-1.0000,-49.01,39.37,-10.32
2026-05-08T15:54:50.158Z,-0.1520,-0.6377,-0.7678,0.0031,-0.0083,-0.0268,55.59120597547465,37.671920075761314,171.4880,-1.0000,-49.01,39.37,-10.32
2026-05-08T15:54:50.169Z,-0.1535,-0.6356,-0.7710,0.0107,-0.0089,-0.0368,55.59120597547465,37.671920075761314,171.4880,-1.0000,-49.00,39.37,-10.31
2026-05-08T15:54:50.178Z,-0.1540,-0.6343,-0.7743,0.0149,-0.0075,-0.0371,55.59120597547465,37.671920075761314,171.4880,-1.0000,-49.00,39.38,-10.31
2026-05-08T15:54:50.187Z,-0.1535,-0.6362,-0.7688,0.0060,-0.0043,-0.0257,55.59120597547465,37.671920075761314,171.4880,-1.0000,-49.00,39.38,-10.31
2026-05-08T15:54:50.198Z,-0.1497,-0.6394,-0.7671,-0.0046,0.0071,-0.0082,55.59120597547465,37.671920075761314,171.4880,-1.0000,-49.01,39.39,-10.30
2026-05-08T15:54:50.208Z,-0.1442,-0.6439,-0.7652,-0.0084,0.0129,0.0047,55.59120597547465,37.671920075761314,171.4880,-1.0000,-49.01,39.39,-10.30
2026-05-08T15:54:50.220Z,-0.1442,-0.6439,-0.7652,-0.0084,0.0129,0.0047,55.59120597547465,37.671920075761314,171.4880,-1.0000,-49.01,39.40,-10.30
2026-05-08T15:54:50.227Z,-0.1490,-0.6435,-0.7736,-0.0089,0.0266,0.0164,55.59120597547465,37.671920075761314,171.4880,-1.0000,-49.02,39.40,-10.29
2026-05-08T15:54:50.238Z,-0.1499,-0.6422,-0.7696,-0.0180,0.0107,0.0159,55.59120597547465,37.671920075761314,171.4880,-1.0000,-49.02,39.41,-10.28
2026-05-08T15:54:50.248Z,-0.1518,-0.6443,-0.7680,-0.0279,0.0033,0.0167,55.59120597547465,37.671920075761314,171.4880,-1.0000,-49.02,39.41,-10.28
2026-05-08T15:54:50.258Z,-0.1529,-0.6446,-0.7691,-0.0305,-0.0030,0.0168,55.59120597547465,37.671920075761314,171.4880,-1.0000,-49.02,39.41,-10.28
2026-05-08T15:54:50.269Z,-0.1564,-0.6411,-0.7673,-0.0181,-0.0032,0.0147,55.59120597547465,37.671920075761314,171.4880,-1.0000,-49.01,39.40,-10.27
2026-05-08T15:54:50.278Z,-0.1587,-0.6400,-0.7704,-0.0017,-0.0063,0.0039,55.59120597547465,37.671920075761314,171.4880,-1.0000,-49.00,39.40,-10.27
2026-05-08T15:54:50.288Z,-0.1620,-0.6398,-0.7722,0.0163,-0.0041,-0.0117,55.59120597547465,37.671920075761314,171.4880,-1.0000,-49.00,39.40,-10.27
2026-05-08T15:54:50.298Z,-0.1618,-0.6397,-0.7765,0.0301,-0.0003,-0.0225,55.59120597547465,37.671920075761314,171.4880,-1.0000,-48.99,39.39,-10.27
2026-05-08T15:54:50.308Z,-0.1581,-0.6389,-0.7721,0.0326,-0.0026,-0.0263,55.59120597547465,37.671920075761314,171.4880,-1.0000,-48.98,39.39,-10.27
2026-05-08T15:54:50.319Z,-0.1547,-0.6365,-0.7680,0.0249,-0.0044,-0.0191,55.59120597547465,37.671920075761314,171.4880,-1.0000,-48.96,39.38,-10.28
2026-05-08T15:54:50.328Z,-0.1513,-0.6368,-0.7605,-0.0039,-0.0107,-0.0098,55.59120597547465,37.671920075761314,171.4880,-1.0000,-48.96,39.39,-10.28
2026-05-08T15:54:50.338Z,-0.1507,-0.6380,-0.7497,-0.0334,0.0022,0.0084,55.59120597547465,37.671920075761314,171.4880,-1.0000,-48.96,39.39,-10.28
2026-05-08T15:54:50.349Z,-0.1470,-0.6418,-0.7548,-0.0435,0.0037,0.0179,55.59120597547465,37.671920075761314,171.4880,-1.0000,-48.95,39.39,-10.29
2026-05-08T15:54:50.358Z,-0.1517,-0.6445,-0.7619,-0.0320,0.0018,0.0198,55.59120597547465,37.671920075761314,171.4880,-1.0000,-48.95,39.39,-10.29
2026-05-08T15:54:50.368Z,-0.1565,-0.6425,-0.7654,-0.0151,0.0021,0.0156,55.59120597547465,37.671920075761314,171.4880,-1.0000,-48.94,39.39,-10.29
2026-05-08T15:54:50.378Z,-0.1585,-0.6426,-0.7664,0.0020,0.0104,0.0119,55.59120597547465,37.671920075761314,171.4880,-1.0000,-48.94,39.39,-10.29
2026-05-08T15:54:50.388Z,-0.1572,-0.6430,-0.7657,0.0129,0.0192,0.0169,55.59120597547465,37.671920075761314,171.4880,-1.0000,-48.94,39.39,-10.30
2026-05-08T15:54:50.398Z,-0.1542,-0.6456,-0.7655,0.0159,0.0185,0.0207,55.59120597547465,37.671920075761314,171.4880,-1.0000,-48.92,39.39,-10.30
2026-05-08T15:54:50.408Z,-0.1519,-0.6448,-0.7668,0.0077,0.0115,0.0107,55.59120597547465,37.671920075761314,171.4880,-1.0000,-48.92,39.39,-10.30
2026-05-08T15:54:50.418Z,-0.1559,-0.6425,-0.7627,-0.0074,0.0019,-0.0005,55.59120597547465,37.671920075761314,171.4880,-1.0000,-48.91,39.39,-10.30
2026-05-08T15:54:50.428Z,-0.1561,-0.6401,-0.7639,-0.0235,0.0046,-0.0070,55.59120597547465,37.671920075761314,171.4880,-1.0000,-48.90,39.38,-10.31
2026-05-08T15:54:50.438Z,-0.1512,-0.6414,-0.7673,-0.0376,0.0104,-0.0090,55.59120597547465,37.671920075761314,171.4880,-1.0000,-48.88,39.37,-10.31
2026-05-08T15:54:50.448Z,-0.1481,-0.6400,-0.7676,-0.0465,0.0217,-0.0045,55.59120597547465,37.671920075761314,171.4880,-1.0000,-48.87,39.37,-10.31
2026-05-08T15:54:50.458Z,-0.1489,-0.6374,-0.7732,-0.0407,0.0265,0.0012,55.59120597547465,37.671920075761314,171.4880,-1.0000,-48.86,39.36,-10.31
2026-05-08T15:54:50.468Z,-0.1516,-0.6374,-0.7752,-0.0331,0.0165,0.0073,55.59120597547465,37.671920075761314,171.4880,-1.0000,-48.85,39.36,-10.31
2026-05-08T15:54:50.478Z,-0.1554,-0.6368,-0.7714,-0.0253,0.0198,0.0106,55.59120597547465,37.671920075761314,171.4880,-1.0000,-48.84,39.35,-10.31
2026-05-08T15:54:50.488Z,-0.1533,-0.6366,-0.7789,-0.0159,0.0106,0.0077,55.59120597547465,37.671920075761314,171.4880,-1.0000,-48.83,39.34,-10.30
2026-05-08T15:54:50.498Z,-0.1501,-0.6375,-0.7791,-0.0074,-0.0021,0.0049,55.59120597547465,37.671920075761314,171.4880,-1.0000,-48.82,39.33,-10.30
2026-05-08T15:54:50.508Z,-0.1497,-0.6354,-0.7767,0.0056,-0.0007,0.0027,55.59120597547465,37.671920075761314,171.4880,-1.0000,-48.81,39.32,-10.29
2026-05-08T15:54:50.518Z,-0.1537,-0.6364,-0.7752,0.0199,0.0002,-0.0054,55.59120597547465,37.671920075761314,171.4880,-1.0000,-48.81,39.31,-10.29
2026-05-08T15:54:50.528Z,-0.1581,-0.6369,-0.7712,0.0263,0.0023,-0.0084,55.59120597547465,37.671920075761314,171.4880,-1.0000,-48.80,39.30,-10.28
2026-05-08T15:54:50.538Z,-0.1559,-0.6365,-0.7637,0.0217,0.0003,-0.0058,55.59120597547465,37.671920075761314,171.4880,-1.0000,-48.80,39.29,-10.28
2026-05-08T15:54:50.548Z,-0.1571,-0.6394,-0.7537,0.0117,0.0094,0.0057,55.59120597547465,37.671920075761314,171.4880,-1.0000,-48.79,39.28,-10.27
2026-05-08T15:54:50.557Z,-0.1569,-0.6424,-0.7544,0.0117,0.0094,0.0057,55.59120597547465,37.671920075761314,171.4880,-1.0000,-48.78,39.28,-10.27
2026-05-08T15:54:50.568Z,-0.1523,-0.6414,-0.7541,-0.0322,0.0028,0.0091,55.59120597547465,37.671920075761314,171.4880,-1.0000,-48.77,39.28,-10.27
2026-05-08T15:54:50.578Z,-0.1506,-0.6408,-0.7526,-0.0637,-0.0141,0.0050,55.59120597547465,37.671920075761314,171.4880,-1.0000,-48.76,39.28,-10.27
2026-05-08T15:54:50.588Z,-0.1508,-0.6400,-0.7546,-0.0850,-0.0178,0.0045,55.59120597547465,37.671920075761314,171.4880,-1.0000,-48.75,39.28,-10.27
2026-05-08T15:54:50.599Z,-0.1483,-0.6407,-0.7655,-0.0849,-0.0234,0.0055,55.59120597547465,37.671920075761314,171.4880,-1.0000,-48.75,39.28,-10.28
2026-05-08T15:54:50.608Z,-0.1487,-0.6396,-0.7751,-0.0697,-0.0206,0.0045,55.59120597547465,37.671920075761314,171.4880,-1.0000,-48.74,39.27,-10.28
2026-05-08T15:54:50.618Z,-0.1534,-0.6367,-0.7815,-0.0487,-0.0153,-0.0057,55.59120597547465,37.671920075761314,171.4880,-1.0000,-48.74,39.26,-10.28
2026-05-08T15:54:50.628Z,-0.1598,-0.6338,-0.7822,-0.0321,-0.0068,-0.0150,55.59120597547465,37.671920075761314,171.4880,-1.0000,-48.74,39.24,-10.29
2026-05-08T15:54:50.638Z,-0.1600,-0.6359,-0.7836,-0.0162,0.0051,-0.0190,55.59120597547465,37.671920075761314,171.4880,-1.0000,-48.73,39.22,-10.29
2026-05-08T15:54:50.649Z,-0.1577,-0.6386,-0.7856,0.0020,0.0092,-0.0203,55.59120597547465,37.671920075761314,171.4880,-1.0000,-48.73,39.20,-10.30
2026-05-08T15:54:50.658Z,-0.1544,-0.6396,-0.7845,0.0129,0.0108,-0.0178,55.59120597547465,37.671920075761314,171.4880,-1.0000,-48.73,39.18,-10.30
2026-05-08T15:54:50.667Z,-0.1540,-0.6371,-0.7791,0.0129,0.0108,-0.0178,55.59120597547465,37.671920075761314,171.4880,-1.0000,-48.74,39.15,-10.30
2026-05-08T15:54:50.679Z,-0.1517,-0.6346,-0.7789,0.0253,0.0212,0.0048,55.59120597547465,37.671920075761314,171.4880,-1.0000,-48.74,39.13,-10.30
2026-05-08T15:54:50.688Z,-0.1479,-0.6340,-0.7719,0.0186,0.0170,0.0140,55.59120597547465,37.671920075761314,171.4880,-1.0000,-48.75,39.12,-10.30
2026-05-08T15:54:50.697Z,-0.1509,-0.6323,-0.7669,0.0186,0.0170,0.0140,55.59120597547465,37.671920075761314,171.4880,-1.0000,-48.75,39.11,-10.30
2026-05-08T15:54:50.708Z,-0.1550,-0.6300,-0.7610,-0.0297,0.0095,0.0083,55.59120597547465,37.671920075761314,171.4880,-1.0000,-48.75,39.10,-10.30
2026-05-08T15:54:50.717Z,-0.1555,-0.6324,-0.7660,-0.0297,0.0095,0.0083,55.59120597547465,37.671920075761314,171.4880,-1.0000,-48.75,39.10,-10.29
2026-05-08T15:54:50.729Z,-0.1528,-0.6353,-0.7717,-0.0518,-0.0213,-0.0024,55.59120597547465,37.671920075761314,171.4880,-1.0000,-48.75,39.10,-10.29
2026-05-08T15:54:50.737Z,-0.1514,-0.6357,-0.7780,-0.0518,-0.0213,-0.0024,55.59120597547465,37.671920075761314,171.4880,-1.0000,-48.75,39.10,-10.29
2026-05-08T15:54:50.747Z,-0.1556,-0.6369,-0.7876,-0.0368,-0.0203,-0.0121,55.59120597547465,37.671920075761314,171.4880,-1.0000,-48.75,39.09,-10.28
2026-05-08T15:54:50.758Z,-0.1595,-0.6365,-0.7870,0.0167,-0.0049,-0.0227,55.59120597547465,37.671920075761314,171.4880,-1.0000,-48.74,39.09,-10.28
2026-05-08T15:54:50.767Z,-0.1567,-0.6375,-0.7827,0.0167,-0.0049,-0.0227,55.59120597547465,37.671920075761314,171.4880,-1.0000,-48.74,39.08,-10.28
2026-05-08T15:54:50.779Z,-0.1548,-0.6395,-0.7782,0.0363,0.0099,-0.0195,55.59120597547465,37.671920075761314,171.4880,-1.0000,-48.74,39.08,-10.28
2026-05-08T15:54:50.787Z,-0.1558,-0.6411,-0.7732,0.0363,0.0099,-0.0195,55.59120597547465,37.671920075761314,171.4880,-1.0000,-48.73,39.08,-10.28
2026-05-08T15:54:50.797Z,-0.1530,-0.6392,-0.7655,0.0197,0.0105,-0.0156,55.59120597547465,37.671920075761314,171.4880,-1.0000,-48.73,39.08,-10.28
2026-05-08T15:54:50.807Z,-0.1438,-0.6399,-0.7618,-0.0044,0.0197,0.0032,55.59120597547465,37.671920075761314,171.4880,-1.0000,-48.74,39.07,-10.28
2026-05-08T15:54:50.819Z,-0.1444,-0.6385,-0.7585,-0.0320,0.0242,0.0477,55.59120597547465,37.671920075761314,171.4880,-1.0000,-48.74,39.07,-10.28
2026-05-08T15:54:50.827Z,-0.1519,-0.6370,-0.7642,-0.0261,0.0289,0.0496,55.59120597547465,37.671920075761314,171.4880,-1.0000,-48.74,39.07,-10.28
2026-05-08T15:54:50.839Z,-0.1572,-0.6326,-0.7703,-0.0157,0.0332,0.0425,55.59120597547465,37.671920075761314,171.4880,-1.0000,-48.73,39.07,-10.28
2026-05-08T15:54:50.847Z,-0.1573,-0.6301,-0.7704,-0.0157,0.0332,0.0425,55.59120597547465,37.671920075761314,171.4880,-1.0000,-48.72,39.07,-10.28
2026-05-08T15:54:50.861Z,-0.1549,-0.6314,-0.7664,-0.0183,0.0255,0.0317,55.59120597547465,37.671920075761314,171.4880,-1.0000,-48.70,39.07,-10.27
2026-05-08T15:54:50.867Z,-0.1498,-0.6342,-0.7601,-0.0183,0.0255,0.0317,55.59120597547465,37.671920075761314,171.4880,-1.0000,-48.70,39.07,-10.27
2026-05-08T15:54:50.878Z,-0.1428,-0.6317,-0.7567,-0.0564,0.0418,0.0659,55.59120597547465,37.671920075761314,171.4880,-1.0000,-48.68,39.06,-10.27
2026-05-08T15:54:50.889Z,-0.1441,-0.6324,-0.7588,-0.0620,0.0341,0.0852,55.59120597547465,37.671920075761314,171.4880,-1.0000,-48.66,39.05,-10.27
2026-05-08T15:54:50.897Z,-0.1449,-0.6342,-0.7658,-0.0620,0.0341,0.0852,55.59120597547465,37.671920075761314,171.4880,-1.0000,-48.63,39.03,-10.28
2026-05-08T15:54:50.909Z,-0.1482,-0.6312,-0.7678,-0.0592,0.0208,0.0942,55.59120597547465,37.671920075761314,171.4880,-1.0000,-48.56,38.99,-10.29
2026-05-08T15:54:50.917Z,-0.1500,-0.6279,-0.7690,-0.0592,0.0208,0.0942,55.59120597547465,37.671920075761314,171.4880,-1.0000,-48.56,38.99,-10.29
2026-05-08T15:54:50.928Z,-0.1431,-0.6273,-0.7684,-0.0621,0.0186,0.1079,55.59120597547465,37.671920075761314,171.4880,-1.0000,-48.52,38.96,-10.30
2026-05-08T15:54:50.938Z,-0.1336,-0.6270,-0.7661,-0.0681,0.0096,0.1385,55.59120597547465,37.671920075761314,171.4880,-1.0000,-48.47,38.93,-10.31
2026-05-08T15:54:50.947Z,-0.1336,-0.6252,-0.7665,-0.0835,0.0078,0.1810,55.59120597547465,37.671920075761314,171.4880,-1.0000,-48.41,38.89,-10.34
2026-05-08T15:54:50.959Z,-0.1436,-0.6209,-0.7717,-0.0945,0.0409,0.2264,55.59120597547465,37.671920075761314,171.4880,-1.0000,-48.27,38.81,-10.40
2026-05-08T15:54:50.967Z,-0.1518,-0.6195,-0.7758,-0.0945,0.0409,0.2264,55.59120597547465,37.671920075761314,171.4880,-1.0000,-48.27,38.81,-10.40
2026-05-08T15:54:50.978Z,-0.1495,-0.6204,-0.7786,-0.0799,0.0605,0.2455,55.59120597547465,37.671920075761314,171.4880,-1.0000,-48.18,38.75,-10.44
2026-05-08T15:54:50.987Z,-0.1467,-0.6208,-0.7731,-0.0737,0.0722,0.2715,55.59120597547465,37.671920075761314,171.4880,-1.0000,-48.07,38.70,-10.49
2026-05-08T15:54:50.997Z,-0.1486,-0.6165,-0.7798,-0.0699,0.0956,0.3044,55.59120597547465,37.671920075761314,171.4880,-1.0000,-47.95,38.64,-10.55
2026-05-08T15:54:51.009Z,-0.1494,-0.6122,-0.7811,-0.0431,0.1388,0.3760,55.59120597547465,37.671920075761314,171.4880,-1.0000,-47.66,38.51,-10.68
2026-05-08T15:54:51.017Z,-0.1647,-0.6088,-0.7885,-0.0431,0.1388,0.3760,55.59120597547465,37.671920075761314,171.4880,-1.0000,-47.66,38.51,-10.68
2026-05-08T15:54:51.027Z,-0.1814,-0.6111,-0.8088,0.0049,0.1633,0.3867,55.59120597547465,37.671920075761314,171.4880,-1.0000,-47.49,38.44,-10.75
2026-05-08T15:54:51.037Z,-0.1838,-0.6123,-0.8173,0.0701,0.1863,0.3739,55.59120597547465,37.671920075761314,171.4880,-1.0000,-47.29,38.38,-10.83
2026-05-08T15:54:51.047Z,-0.1787,-0.6154,-0.8037,0.1165,0.1766,0.3585,55.59120597547465,37.671920075761314,171.4880,-1.0000,-47.08,38.33,-10.91
2026-05-08T15:54:51.059Z,-0.1772,-0.6207,-0.7914,0.1211,0.1418,0.3196,55.59120597547465,37.671920075761314,171.4880,-1.0000,-46.62,38.25,-11.06
2026-05-08T15:54:51.067Z,-0.1687,-0.6230,-0.7804,0.1211,0.1418,0.3196,55.59120597547465,37.671920075761314,171.4880,-1.0000,-46.62,38.25,-11.06
2026-05-08T15:54:51.077Z,-0.1821,-0.6238,-0.7749,0.1004,0.1185,0.3007,55.59120597547465,37.671920075761314,171.4880,-1.0000,-46.38,38.22,-11.13
2026-05-08T15:54:51.087Z,-0.1964,-0.6301,-0.7764,0.0878,0.1113,0.2691,55.59120597547465,37.671920075761314,171.4880,-1.0000,-46.13,38.21,-11.21
2026-05-08T15:54:51.097Z,-0.1966,-0.6341,-0.7769,0.0888,0.1050,0.2338,55.59120597547465,37.671920075761314,171.4880,-1.0000,-45.88,38.20,-11.28
2026-05-08T15:54:51.109Z,-0.1866,-0.6353,-0.7770,0.0753,0.1056,0.1893,55.59120597547465,37.671920075761314,171.4880,-1.0000,-45.41,38.22,-11.42
2026-05-08T15:54:51.117Z,-0.1770,-0.6357,-0.7716,0.0753,0.1056,0.1893,55.59120597547465,37.671920075761314,171.4880,-1.0000,-45.41,38.22,-11.42
2026-05-08T15:54:51.127Z,-0.1683,-0.6335,-0.7677,0.0549,0.0937,0.1903,55.59120597547465,37.671920075761314,171.4880,-1.0000,-45.19,38.24,-11.48
2026-05-08T15:54:51.137Z,-0.1595,-0.6287,-0.7716,0.0381,0.0852,0.2079,55.59120597547465,37.671920075761314,171.4880,-1.0000,-44.98,38.26,-11.54
2026-05-08T15:54:51.147Z,-0.1634,-0.6243,-0.7801,0.0393,0.0749,0.2294,55.59120597547465,37.671920075761314,171.4880,-1.0000,-44.78,38.28,-11.59
2026-05-08T15:54:51.158Z,-0.1645,-0.6211,-0.7900,0.0811,0.0603,0.2571,55.59120597547465,37.671920075761314,171.4880,-1.0000,-44.42,38.31,-11.71
2026-05-08T15:54:51.167Z,-0.1647,-0.6186,-0.7897,0.0811,0.0603,0.2571,55.59120597547465,37.671920075761314,171.4880,-1.0000,-44.42,38.31,-11.71
2026-05-08T15:54:51.177Z,-0.1708,-0.6204,-0.7805,0.0900,0.0439,0.2605,55.59120597547465,37.671920075761314,171.4880,-1.0000,-44.24,38.33,-11.77
2026-05-08T15:54:51.188Z,-0.1640,-0.6191,-0.7766,0.0898,0.0445,0.2755,55.59120597547465,37.671920075761314,171.4880,-1.0000,-44.07,38.34,-11.83
2026-05-08T15:54:51.198Z,-0.1793,-0.6171,-0.7687,0.0757,0.0387,0.2824,55.59120597547465,37.671920075761314,171.4880,-1.0000,-43.89,38.35,-11.90
2026-05-08T15:54:51.208Z,-0.1976,-0.6199,-0.7734,0.0759,0.0698,0.2397,55.59120597547465,37.671920075761314,171.4880,-1.0000,-43.53,38.37,-12.05
2026-05-08T15:54:51.217Z,-0.2105,-0.6251,-0.7789,0.0759,0.0698,0.2397,55.59120597547465,37.671920075761314,171.4880,-1.0000,-43.53,38.37,-12.05
2026-05-08T15:54:51.227Z,-0.2196,-0.6320,-0.7799,0.0895,0.0729,0.1937,55.59120597547465,37.671920075761314,171.4880,-1.0000,-43.35,38.38,-12.13
2026-05-08T15:54:51.237Z,-0.2209,-0.6396,-0.7812,0.0975,0.0677,0.1411,55.59120597547465,37.671920075761314,171.4880,-1.0000,-43.16,38.40,-12.22
2026-05-08T15:54:51.247Z,-0.2161,-0.6458,-0.7823,0.1045,0.0640,0.0947,55.59120597547465,37.671920075761314,171.4880,-1.0000,-42.99,38.42,-12.30
2026-05-08T15:54:51.258Z,-0.2027,-0.6487,-0.7755,0.0907,0.0598,0.0604,55.59120597547465,37.671920075761314,171.4880,-1.0000,-42.82,38.44,-12.37
2026-05-08T15:54:51.267Z,-0.1786,-0.6443,-0.7690,0.0907,0.0598,0.0604,55.59120597547465,37.671920075761314,171.4880,-1.0000,-42.67,38.46,-12.44
2026-05-08T15:54:51.278Z,-0.1744,-0.6433,-0.7621,0.0698,0.0497,0.0712,55.59120597547465,37.671920075761314,171.4880,-1.0000,-42.53,38.49,-12.50
2026-05-08T15:54:51.287Z,-0.1869,-0.6414,-0.7609,0.0479,0.0433,0.0674,55.59120597547465,37.671920075761314,171.4880,-1.0000,-42.41,38.52,-12.55
2026-05-08T15:54:51.298Z,-0.1923,-0.6360,-0.7609,0.0336,0.0344,0.0559,55.59120597547465,37.671920075761314,171.4880,-1.0000,-42.30,38.55,-12.58
2026-05-08T15:54:51.308Z,-0.1962,-0.6330,-0.7547,-0.0023,0.0006,0.0285,55.59120597547465,37.671920075761314,171.4880,-1.0000,-42.21,38.58,-12.61
2026-05-08T15:54:51.317Z,-0.1956,-0.6315,-0.7504,-0.0023,0.0006,0.0285,55.59120597547465,37.671920075761314,171.4880,-1.0000,-42.13,38.61,-12.64
2026-05-08T15:54:51.327Z,-0.1937,-0.6344,-0.7600,-0.0120,-0.0020,0.0245,55.59120597547465,37.671920075761314,171.4880,-1.0000,-42.08,38.63,-12.65
2026-05-08T15:54:51.337Z,-0.1942,-0.6366,-0.7661,-0.0130,-0.0034,0.0173,55.59120597547465,37.671920075761314,171.4880,-1.0000,-42.03,38.66,-12.67
2026-05-08T15:54:51.347Z,-0.1956,-0.6364,-0.7686,-0.0084,-0.0061,0.0014,55.59120597547465,37.671920075761314,171.4880,-1.0000,-41.99,38.67,-12.68
2026-05-08T15:54:51.358Z,-0.1973,-0.6362,-0.7651,-0.0030,-0.0065,-0.0188,55.59120597547465,37.671920075761314,171.4880,-1.0000,-41.96,38.69,-12.69
2026-05-08T15:54:51.367Z,-0.1920,-0.6388,-0.7609,-0.0046,-0.0055,-0.0293,55.59120597547465,37.671920075761314,171.4880,-1.0000,-41.94,38.69,-12.70
2026-05-08T15:54:51.377Z,-0.1836,-0.6363,-0.7629,-0.0095,0.0005,-0.0240,55.59120597547465,37.671920075761314,171.4880,-1.0000,-41.93,38.70,-12.70
2026-05-08T15:54:51.388Z,-0.1863,-0.6336,-0.7618,-0.0188,-0.0057,-0.0215,55.59120597547465,37.671920075761314,171.4880,-1.0000,-41.92,38.70,-12.71
2026-05-08T15:54:51.397Z,-0.1896,-0.6342,-0.7657,-0.0261,0.0030,-0.0168,55.59120597547465,37.671920075761314,171.4880,-1.0000,-41.93,38.69,-12.71
2026-05-08T15:54:51.408Z,-0.1792,-0.6301,-0.7714,-0.0255,0.0128,-0.0052,55.59120597547465,37.671920075761314,171.4880,-1.0000,-41.93,38.69,-12.71
2026-05-08T15:54:51.417Z,-0.1729,-0.6268,-0.7733,-0.0190,0.0122,0.0111,55.59120597547465,37.671920075761314,171.4880,-1.0000,-41.94,38.68,-12.71
2026-05-08T15:54:51.427Z,-0.1780,-0.6239,-0.7802,-0.0049,0.0177,0.0270,55.59120597547465,37.671920075761314,171.4880,-1.0000,-41.95,38.68,-12.71
2026-05-08T15:54:51.437Z,-0.1876,-0.6212,-0.7840,0.0203,0.0209,0.0298,55.59120597547465,37.671920075761314,171.4880,-1.0000,-41.96,38.67,-12.71
2026-05-08T15:54:51.447Z,-0.1907,-0.6206,-0.7792,0.0367,0.0167,0.0305,55.59120597547465,37.671920075761314,171.4880,-1.0000,-41.97,38.67,-12.70
2026-05-08T15:54:51.458Z,-0.1940,-0.6239,-0.7777,0.0450,0.0154,0.0234,55.59120597547465,37.671920075761314,171.4880,-1.0000,-41.98,38.67,-12.70
2026-05-08T15:54:51.467Z,-0.1983,-0.6291,-0.7729,0.0447,0.0150,0.0093,55.59120597547465,37.671920075761314,171.4880,-1.0000,-41.98,38.67,-12.70
2026-05-08T15:54:51.477Z,-0.1937,-0.6349,-0.7653,0.0302,0.0123,-0.0072,55.59120597547465,37.671920075761314,171.4880,-1.0000,-41.97,38.68,-12.70
2026-05-08T15:54:51.487Z,-0.1830,-0.6378,-0.7552,-0.0024,0.0071,-0.0078,55.59120597547465,37.671920075761314,171.4880,-1.0000,-41.97,38.68,-12.70
2026-05-08T15:54:51.497Z,-0.1810,-0.6387,-0.7558,-0.0373,0.0111,0.0029,55.59120597547465,37.671920075761314,171.4880,-1.0000,-41.96,38.69,-12.70
2026-05-08T15:54:51.508Z,-0.1839,-0.6366,-0.7672,-0.0559,0.0198,0.0141,55.59120597547465,37.671920075761314,171.4880,-1.0000,-41.96,38.69,-12.70
2026-05-08T15:54:51.517Z,-0.1890,-0.6312,-0.7709,-0.0568,0.0221,0.0149,55.59120597547465,37.671920075761314,171.4880,-1.0000,-41.95,38.69,-12.70
2026-05-08T15:54:51.527Z,-0.1951,-0.6282,-0.7755,-0.0460,0.0301,0.0078,55.59120597547465,37.671920075761314,171.4880,-1.0000,-41.94,38.69,-12.70
2026-05-08T15:54:51.537Z,-0.1951,-0.6249,-0.7784,-0.0337,0.0354,-0.0025,55.59120597547465,37.671920075761314,171.4880,-1.0000,-41.94,38.69,-12.70
2026-05-08T15:54:51.547Z,-0.1921,-0.6284,-0.7813,-0.0191,0.0398,-0.0085,55.59120597547465,37.671920075761314,171.4880,-1.0000,-41.94,38.68,-12.69
2026-05-08T15:54:51.558Z,-0.1918,-0.6340,-0.7876,0.0007,0.0320,-0.0127,55.59120597547465,37.671920075761314,171.4880,-1.0000,-41.94,38.68,-12.68
2026-05-08T15:54:51.567Z,-0.1919,-0.6336,-0.7872,0.0264,0.0177,-0.0212,55.59120596580452,37.6719201274661,171.4880,-1.0000,-41.95,38.67,-12.67
2026-05-08T15:54:51.576Z,-0.1918,-0.6303,-0.7729,0.0399,-0.0068,-0.0339,55.59120596580452,37.6719201274661,171.4880,-1.0000,-41.96,38.66,-12.66
2026-05-08T15:54:51.587Z,-0.1885,-0.6300,-0.7625,0.0358,-0.0145,-0.0414,55.59120596580452,37.6719201274661,171.4880,-1.0000,-41.97,38.65,-12.64
2026-05-08T15:54:51.597Z,-0.1812,-0.6303,-0.7560,0.0174,-0.0108,-0.0356,55.59120596580452,37.6719201274661,171.4880,-1.0000,-41.99,38.65,-12.63
2026-05-08T15:54:51.607Z,-0.1718,-0.6290,-0.7541,-0.0030,-0.0105,-0.0123,55.59120596580452,37.6719201274661,171.4880,-1.0000,-42.01,38.64,-12.62
2026-05-08T15:54:51.617Z,-0.1810,-0.6294,-0.7603,-0.0164,-0.0026,0.0055,55.59120596580452,37.6719201274661,171.4880,-1.0000,-42.02,38.65,-12.61
2026-05-08T15:54:51.627Z,-0.1916,-0.6296,-0.7636,-0.0120,0.0069,0.0039,55.59120596580452,37.6719201274661,171.4880,-1.0000,-42.04,38.65,-12.60
2026-05-08T15:54:51.638Z,-0.1905,-0.6277,-0.7685,-0.0023,0.0176,-0.0028,55.59120596580452,37.6719201274661,171.4880,-1.0000,-42.06,38.66,-12.59
2026-05-08T15:54:51.647Z,-0.1856,-0.6301,-0.7701,0.0047,0.0233,-0.0058,55.59120596580452,37.6719201274661,171.4880,-1.0000,-42.07,38.67,-12.58
2026-05-08T15:54:51.657Z,-0.1791,-0.6333,-0.7700,0.0103,0.0254,0.0012,55.59120596580452,37.6719201274661,171.4880,-1.0000,-42.09,38.67,-12.58
2026-05-08T15:54:51.667Z,-0.1780,-0.6316,-0.7662,0.0117,0.0240,0.0066,55.59120596580452,37.6719201274661,171.4880,-1.0000,-42.10,38.68,-12.57
2026-05-08T15:54:51.677Z,-0.1801,-0.6299,-0.7621,0.0082,0.0198,0.0087,55.59120596580452,37.6719201274661,171.4880,-1.0000,-42.11,38.69,-12.57
2026-05-08T15:54:51.687Z,-0.1860,-0.6299,-0.7602,0.0045,0.0195,0.0075,55.59120596580452,37.6719201274661,171.4880,-1.0000,-42.11,38.69,-12.56
2026-05-08T15:54:51.698Z,-0.1864,-0.6319,-0.7574,-0.0045,0.0108,0.0038,55.59120596580452,37.6719201274661,171.4880,-1.0000,-42.12,38.69,-12.56
2026-05-08T15:54:51.707Z,-0.1849,-0.6331,-0.7569,-0.0188,0.0030,0.0049,55.59120596580452,37.6719201274661,171.4880,-1.0000,-42.12,38.69,-12.55
2026-05-08T15:54:51.717Z,-0.1846,-0.6329,-0.7636,-0.0298,0.0009,0.0001,55.59120596580452,37.6719201274661,171.4880,-1.0000,-42.12,38.69,-12.55
2026-05-08T15:54:51.728Z,-0.1889,-0.6301,-0.7648,-0.0362,-0.0020,-0.0081,55.59120596580452,37.6719201274661,171.4880,-1.0000,-42.12,38.69,-12.54
2026-05-08T15:54:51.738Z,-0.1906,-0.6297,-0.7730,-0.0375,-0.0112,-0.0170,55.59120596580452,37.6719201274661,171.4880,-1.0000,-42.12,38.69,-12.54
2026-05-08T15:54:51.748Z,-0.1900,-0.6331,-0.7800,-0.0268,-0.0101,-0.0205,55.59120596580452,37.6719201274661,171.4880,-1.0000,-42.12,38.69,-12.53
2026-05-08T15:54:51.757Z,-0.1900,-0.6331,-0.7793,-0.0138,-0.0102,-0.0217,55.59120596580452,37.6719201274661,171.4880,-1.0000,-42.13,38.68,-12.53
2026-05-08T15:54:51.768Z,-0.1839,-0.6332,-0.7776,-0.0036,-0.0008,-0.0173,55.59120596580452,37.6719201274661,171.4880,-1.0000,-42.14,38.67,-12.53
2026-05-08T15:54:51.777Z,-0.1863,-0.6283,-0.7727,-0.0045,0.0036,-0.0130,55.59120596580452,37.6719201274661,171.4880,-1.0000,-42.15,38.67,-12.52
2026-05-08T15:54:51.787Z,-0.1851,-0.6278,-0.7763,-0.0067,0.0022,-0.0117,55.59120596580452,37.6719201274661,171.4880,-1.0000,-42.16,38.66,-12.52
2026-05-08T15:54:51.797Z,-0.1832,-0.6273,-0.7805,-0.0058,-0.0010,-0.0127,55.59120596580452,37.6719201274661,171.4880,-1.0000,-42.17,38.65,-12.52
2026-05-08T15:54:51.807Z,-0.1780,-0.6238,-0.7773,0.0023,-0.0041,-0.0048,55.59120596580452,37.6719201274661,171.4880,-1.0000,-42.18,38.64,-12.52
2026-05-08T15:54:51.818Z,-0.1742,-0.6234,-0.7743,0.0110,-0.0062,0.0098,55.59120596580452,37.6719201274661,171.4880,-1.0000,-42.19,38.64,-12.51
2026-05-08T15:54:51.827Z,-0.1806,-0.6230,-0.7718,0.0100,-0.0076,0.0142,55.59120596580452,37.6719201274661,171.4880,-1.0000,-42.20,38.64,-12.51
2026-05-08T15:54:51.837Z,-0.1865,-0.6237,-0.7688,0.0023,-0.0068,0.0193,55.59120596580452,37.6719201274661,171.4880,-1.0000,-42.21,38.63,-12.52
2026-05-08T15:54:51.847Z,-0.1892,-0.6278,-0.7745,-0.0031,-0.0040,0.0193,55.59120596580452,37.6719201274661,171.4880,-1.0000,-42.22,38.64,-12.52
2026-05-08T15:54:51.857Z,-0.1935,-0.6302,-0.7731,0.0002,-0.0069,0.0099,55.59120596580452,37.6719201274661,171.4880,-1.0000,-42.22,38.64,-12.52
2026-05-08T15:54:51.867Z,-0.1936,-0.6328,-0.7709,0.0023,-0.0001,-0.0007,55.59120596580452,37.6719201274661,171.4880,-1.0000,-42.21,38.64,-12.53
2026-05-08T15:54:51.878Z,-0.1923,-0.6356,-0.7716,0.0093,0.0005,-0.0094,55.59120596580452,37.6719201274661,171.4880,-1.0000,-42.21,38.64,-12.53
2026-05-08T15:54:51.887Z,-0.1905,-0.6370,-0.7723,0.0187,0.0048,-0.0137,55.59120596580452,37.6719201274661,171.4880,-1.0000,-42.21,38.64,-12.54
2026-05-08T15:54:51.897Z,-0.1909,-0.6374,-0.7714,0.0257,0.0037,-0.0195,55.59120596580452,37.6719201274661,171.4880,-1.0000,-42.20,38.65,-12.55
2026-05-08T15:54:51.907Z,-0.1796,-0.6371,-0.7620,0.0270,-0.0037,-0.0206,55.59120596580452,37.6719201274661,171.4880,-1.0000,-42.20,38.65,-12.55
2026-05-08T15:54:51.917Z,-0.1726,-0.6364,-0.7461,0.0022,-0.0048,-0.0083,55.59120596580452,37.6719201274661,171.4880,-1.0000,-42.20,38.66,-12.56
2026-05-08T15:54:51.928Z,-0.1744,-0.6328,-0.7507,-0.0269,-0.0005,0.0076,55.59120596580452,37.6719201274661,171.4880,-1.0000,-42.20,38.66,-12.56
2026-05-08T15:54:51.937Z,-0.1793,-0.6299,-0.7617,-0.0416,0.0023,0.0149,55.59120596580452,37.6719201274661,171.4880,-1.0000,-42.20,38.67,-12.57
